TIME,POS_X,POS_Y,POS_Z,ROLL,PITCH,YAW,VEL_X,VEL_Y,VEL_Z,ROLL_RATE,PITCH_RATE,YAW_RATE,CMD_ROLL,CMD_PITCH,CMD_YAW,CMD_THRUST,DES_POS_X,DES_POS_Y,DES_POS_Z,DES_YAW,DES_VEL_X,DES_VEL_Y,DES_VEL_Z,STATUS,VICON_POS_X,VICON_POS_Y,VICON_POS_Z,VICON_ROLL,VICON_PITCH,VICON_YAW,ACC_X,ACC_Y,ACC_Z,ROLL_ACC,PITCH_ACC,YAW_ACC,PITCH_PRED,PITCH_ACT,OBS_POS_X,OBS_POS_Z,OBS_VEL_X,OBS_VEL_Z,OBS_PITCH,OBS_PITCH_RATE,INFERENCE_TIME,POS_ERROR,VICON_VEL_X,VICON_VEL_Y,VICON_VEL_Z,VICON_ROLL_RATE,VICON_PITCH_RATE,VICON_YAW_RATE,CMD_FORCE
1745262874.3372967,-0.002446039090470198,-0.010582755682224422,0.05394887397947504,0.05887109482534656,0.017799666855937722,-0.050399468742132636,-0.0009876981588341634,-0.0006422537870756386,-0.00016559492410311274,0.010786446443247829,0.0052959222692378115,-0.006360600984832116,-0.0002893150298802993,0.00044492676453411484,0.0,52335.267630116214,-0.002446039090470198,-0.010582755682224422,0.05394887397947504,0.0,0.0,0.0,0.3012901675224602,TAKEOFF,-0.0024666356778001433,-0.010558761239822925,0.05396257566131571,0.0576060165380928,0.017869770979314064,-0.04907629572846441,,,,,,,,,,,,,,,,0.0,,,,,,,0.44313819641986646
1745262874.3550541,-0.0024990947492394768,-0.010541822942776223,0.05394291374667508,0.05917465722263154,0.014976163413983197,-0.04907975025036553,-0.005881206155311889,0.006147256005327764,0.0011780715825889046,-0.002418646668616707,-0.018767127244399877,0.001278983400250656,0.0027625013258840187,0.0026552864602547026,-2.168404344971009e-19,52915.983765531746,-0.002446039090470198,-0.010582755682224422,0.059974677329924245,0.0,0.0,0.0,0.3012901675224602,TAKEOFF,-0.0024900063349858922,-0.010597940025247748,0.05395327942270368,0.05857063676335164,0.018997265462209506,-0.049553544658134524,,,,,,,,,,,,,,,,0.006032135800551659,,,,,,,0.4502396275560792
1745262874.374677,-0.002460325782748922,-0.01062983292156914,0.05397987564377469,0.06022506911476026,0.01563836968508201,-0.04944625248398933,-5.870859308570314e-05,-0.00543032450904727,0.0014081265484089558,0.016874600200526356,-0.020814240433853323,0.004345102025061903,-0.002410357628951507,3.822821986121383e-05,0.0,53497.3941941497,-0.002446039090470198,-0.010582755682224422,0.06600048068037345,0.0,0.0,0.0,0.3012901675224602,TAKEOFF,-0.002460325782748922,-0.01062983292156914,0.05397987564377469,0.06054282317597871,0.016283117922799156,-0.0490337118690436,,,,,,,,,,,,,,,,0.012020705712309246,,,,,,,0.4574425581729596
1745262874.395125,-0.0023808218193070584,-0.010624381240028399,0.05390291947162745,0.058439386231160975,0.016986710389655175,-0.05247179565463259,0.0032988983880834688,-0.0034280607657638223,-0.003760181097582053,-0.011712922794270905,-0.028463841093001735,-0.05407500375477986,-0.0015003072737245634,-0.0014651736453390463,-1.0842021724855044e-19,54272.225201591755,-0.002446039090470198,-0.010582755682224422,0.07202628403082265,0.0,0.0,0.0,0.3012901675224602,TAKEOFF,-0.0023263490384920916,-0.010553433147461506,0.05389960602168359,0.05942642153938554,0.01367486256664321,-0.04973324582794536,,,,,,,,,,,,,,,,0.018123529703813573,,,,,,,0.46719289190116275
1745262874.4146788,-0.0024214434616985653,-0.01066239802004225,0.05397774099672,0.05913004144126949,0.01571628173435961,-0.05072310648884472,0.0002057690069087125,-0.00839472742312048,0.0036950244772780624,0.010876842064653015,-0.025826165198943096,0.020197858602576124,-0.003620300613954797,-0.00010794569298111512,-2.168404344971009e-19,54618.1565505305,-0.002446039090470198,-0.010582755682224422,0.07805208738127185,0.0,0.0,0.0,0.3012901675224602,TAKEOFF,-0.002405241377230797,-0.01056513753752698,0.05396969270331058,0.0569947879400266,0.011353536611821959,-0.05062903964988339,,,,,,,,,,,,,,,,0.02407449068392336,,,,,,,0.4716040581080789
1745262874.4346473,-0.0024281015594806673,-0.010609868789731147,0.05396907550333904,0.05836087769713956,0.014625135987751638,-0.05013588941942664,0.00021631557267562905,0.0007476296551847292,-0.00046779589966720533,-0.007855940904613879,-0.02240561763022933,0.01037757480930203,0.00028750033054435176,-0.00010476429132810772,-2.710505431213761e-20,55342.77065386171,-0.002446039090470198,-0.010582755682224422,0.08407789073172106,0.0,0.0,0.0,0.3012901675224602,TAKEOFF,-0.002442395450550044,-0.010617235912127829,0.05398088924796631,0.057715671323912345,0.018355512089705726,-0.053130603193968895,,,,,,,,,,,,,,,,0.03010883277931022,,,,,,,0.480965383247915
1745262874.4545553,-0.0025474096307745425,-0.01059967919546107,0.05401376302816632,0.0557890099267035,0.019462201043074487,-0.05135519634952302,-0.007996777441055952,-2.4754207307892302e-05,-0.0017300888287496272,-0.07507392660759672,-0.029978098433615406,-0.025565858877573115,-2.4276348768845373e-05,0.0033478997640530306,0.0,55955.78484604024,-0.002446039090470198,-0.010582755682224422,0.09010369408217025,0.0,0.0,0.0,0.3012901675224602,TAKEOFF,-0.0025474096307745425,-0.01059967919546107,0.05401376302816632,0.0533261792767778,0.01916157633891058,-0.052566904970439546,,,,,,,,,,,,,,,,0.036090077388037,,,,,,,0.4890186909891019
1745262874.4752686,-0.0024938080032583737,-0.010650489590737462,0.05409502428268287,0.059257617253621546,0.019323744535428497,-0.05161041803832872,0.007666543858935379,-0.005066703432017733,0.0062534159703645596,0.049126804170873395,-0.016606245332931358,-0.0017224894380759156,-0.0021060849138461847,-0.0030641648789162534,-2.168404344971009e-19,56261.27992613581,-0.002446039090470198,-0.010582755682224422,0.09612949743261946,0.0,0.0,0.0,0.3012901675224602,TAKEOFF,-0.0024938080032583737,-0.010650489590737462,0.05409502428268287,0.06125492249552364,0.023356382855519373,-0.0511565367791735,,,,,,,,,,,,,,,,0.04203455486554047,,,,,,,0.493079759964618
1745262874.4945605,-0.002629824483813476,-0.010540067596004725,0.054234285769477586,0.05622651374752808,0.012435644832045002,-0.05612214779149527,-0.005965835309937637,0.012469366240301882,0.007507524554649463,-0.0481555905985594,-0.026492561378096805,-0.10601118842298277,0.005011131692722553,0.002528697445837169,4.336808689942018e-19,56802.444981800516,-0.002446039090470198,-0.010582755682224422,0.10215530078306867,0.0,0.0,0.0,0.3012901675224602,TAKEOFF,-0.0026417144051612256,-0.010556144926710852,0.05433030728345279,0.06255137793363472,0.017075219025913236,-0.0488885915335204,,,,,,,,,,,,,,,,0.047921386449854865,,,,,,,0.5003546097417864
1745262874.5149167,-0.0028620839279292435,-0.010584830852501358,0.05461730282428093,0.059114264790947696,0.008480881127853336,-0.04814040226197798,-0.008810331513612574,0.00021570980382070717,0.013087711818650725,0.015463165081049094,-0.020914331953578655,0.06225124367005897,8.324342338501955e-05,0.003813326147090512,-6.776263578034403e-21,57145.17827810441,-0.002446039090470198,-0.010582755682224422,0.10818110413351788,0.0,0.0,0.0,0.3012901675224602,TAKEOFF,-0.002914127888385694,-0.010486999634636346,0.05486499095925448,0.05377904989146446,0.006995397165460577,-0.05090499274301796,,,,,,,,,,,,,,,,0.0535654170926403,,,,,,,0.5050171859102575
1745262874.5346107,-0.0033008309052033253,-0.010325310847192265,0.056003558481739615,0.049996785450522246,-0.007684065077088493,-0.048755947036639005,-0.02731705027047479,0.014637118082556357,0.07806215513974751,-0.13402826416511296,0.011613564445139488,0.0042076628150506685,0.006238340959831359,0.011953101266422905,-4.336808689942018e-19,55669.62709954007,-0.002446039090470198,-0.010582755682224422,0.11420690748396709,0.0,0.0,0.0,0.3012901675224602,TAKEOFF,-0.003359331402013083,-0.010498098230456583,0.05631591978182021,0.0458832234694328,-0.015570464716420245,-0.0474518650726912,,,,,,,,,,,,,,,,0.058210194828438026,,,,,,,0.4852437087764457
1745262874.5547445,-0.0036554748649825176,-0.010433905923442805,0.05827317256233465,0.04195617555904348,-0.027158207365548023,-0.043820072524090904,-0.01507526658831973,-0.008815572019337616,0.118934704304159,-0.19085593434044404,0.03737942582872265,0.08382289460230102,-0.0035922080259016874,0.007384329446284754,2.168404344971009e-19,54759.6565083482,-0.002446039090470198,-0.010582755682224422,0.12023271083441628,0.0,0.0,0.0,0.3012901675224602,TAKEOFF,-0.0036554748649825176,-0.010433905923442805,0.05827317256233465,0.04200290628996535,-0.032290459564516955,-0.0420344348592056,,,,,,,,,,,,,,,,0.061971519862215,,,,,,,0.47341904112725297
1745262874.5745635,-0.004055550135240756,-0.01032280041819096,0.06225683716830026,0.03746696355468575,-0.03415964229658499,-0.03588954736213952,-0.014771577276498348,-0.0005210903057833957,0.20548414829177394,-0.2044113042176655,0.06221081408970561,0.15052811833301488,5.240513369905132e-07,0.008146984433847537,5.293955920339377e-23,52198.83081748237,-0.002446039090470198,-0.010582755682224422,0.1262585141848655,0.0,0.0,0.0,0.3012901675224602,TAKEOFF,-0.004055550135240756,-0.01032280041819096,0.06225683716830026,0.03719701223789803,-0.033395768656906466,-0.034876715620000796,,,,,,,,,,,,,,,,0.06402243953080258,,,,,,,0.4414828304610333
1745262874.5949059,-0.00461006541507863,-0.010083874621154494,0.06674050088959636,0.03823055610283327,-0.029201906296563995,-0.03139698798592655,-0.030788349124811626,0.011003729922073331,0.2838766755063032,-0.14619454876971977,0.05461400336301456,0.20315576228757212,0.0058167430800671145,0.01702707276577642,0.0,49719.601999421655,-0.002446039090470198,-0.010582755682224422,0.1322843175353147,0.0,0.0,0.0,0.3012901675224602,TAKEOFF,-0.004704547646261712,-0.009946799733560233,0.0679176252737693,0.03659858175807827,-0.022979946865191635,-0.03670764953069771,,,,,,,,,,,,,,,,0.06558142871830588,,,,,,,0.4122134237940584
1745262874.615285,-0.005325205221114822,-0.009911297805243085,0.07362851128371524,0.03592665576266283,-0.019305859126344423,-0.027191323895821785,-0.035894732799564164,0.009146095945054264,0.35780945020944843,-0.12542411128222172,0.06608855490676913,0.19379905638451303,0.005492574163876671,0.02181571017461104,0.0,47010.95088465088,-0.002446039090470198,-0.010582755682224422,0.1383101208857639,0.0,0.0,0.0,0.3012901675224602,TAKEOFF,-0.005445612422881369,-0.009896214260542505,0.07508877191764907,0.037073775812441014,-0.02574744748324652,-0.021843402463798622,,,,,,,,,,,,,,,,0.06474913956185242,,,,,,,0.38181612214429783
1745262874.634933,-0.006340638136202586,-0.009495429891448111,0.08201603564129391,0.03514032850999843,-0.016588306024024342,-0.022093223451969603,-0.05788505639486774,0.014929419936388359,0.4232418975686848,-0.10610729322445869,0.054259600598621,0.23948725037097857,0.009693554595735825,0.037210519329570195,-8.673617379884035e-19,44297.1720077091,-0.002446039090470198,-0.010582755682224422,0.1443359242362131,0.0,0.0,0.0,0.3012901675224602,TAKEOFF,-0.006415865005853572,-0.009389779250701294,0.0837824151887104,0.03266172772711584,-0.02205810050526803,-0.022987454720836756,,,,,,,,,,,,,,,,0.06245093028598891,,,,,,,0.35279014104894846
1745262874.6546273,-0.007414718763294804,-0.00906366693189507,0.09173767353174639,0.035902776538358015,-0.014381589734118095,-0.02196657594306769,-0.0568686520039499,0.026188657442272983,0.486602688794748,-0.04628048255153355,0.08574771945149116,0.16754972201147658,0.01809369090634996,0.04135883705662091,0.0,41385.000101405676,-0.002446039090470198,-0.010582755682224422,0.1503617275866623,0.0,0.0,0.0,0.3012901675224602,TAKEOFF,-0.007414718763294804,-0.00906366693189507,0.09173767353174639,0.03751738684694507,-0.015198316219580238,-0.021283537552819823,,,,,,,,,,,,,,,,0.058853845432190924,,,,,,,0.3230239176466519
1745262874.6745899,-0.008649759025423956,-0.008617531860817968,0.10261090382065527,0.03741597527727151,-0.007032468614956036,-0.02330248302628924,-0.061937846543694275,0.026064067875634152,0.5478848960968074,-0.025657462035356324,0.07770558117041938,0.06880200379840586,0.02051045376049071,0.05082153106592791,0.0,38277.04882635783,-0.002446039090470198,-0.010582755682224422,0.1563875309371115,0.0,0.0,0.0,0.3012901675224602,TAKEOFF,-0.008649759025423956,-0.008617531860817968,0.10261090382065527,0.037962411791166696,-0.0056837415219780935,-0.025469457773340767,,,,,,,,,,,,,,,,0.054168938236981726,,,,,,,0.29263582180153264
1745262874.6948044,-0.009939340142562267,-0.0081663518445232,0.11422003521300124,0.04033261971613021,-0.004238558105705451,-0.0192491253740345,-0.06449503916334359,0.01910273597775413,0.5762559240448184,0.01664177436182198,0.08728493765834756,0.1221410072986557,0.01747140387942314,0.05796070362364091,0.0,36341.1659338654,-0.002446039090470198,-0.010582755682224422,0.16241333428756072,0.0,0.0,0.0,0.3012901675224602,TAKEOFF,-0.009939340142562267,-0.0081663518445232,0.11422003521300124,0.04103332422527377,-0.005798681254598863,-0.019300211765929134,,,,,,,,,,,,,,,,0.04883218860397388,,,,,,,0.27435006090319985
1745262874.7146904,-0.010950467677913094,-0.007719109583336437,0.1239811522591198,0.042241189603136255,0.002384801505305672,-0.018656299799405557,-0.055659074320323215,0.029900914704604438,0.5974269502881477,0.04702989104755221,0.09019744400017037,0.11513635902204232,0.027299887612821098,0.055682037375545335,0.0,34946.90687150758,-0.002446039090470198,-0.010582755682224422,0.1684391376380099,0.0,0.0,0.0,0.3012901675224602,TAKEOFF,-0.011242921203290703,-0.007662493281663027,0.12633914487250816,0.04572315018927249,0.0155999056373649,-0.01887706492829937,,,,,,,,,,,,,,,,0.045354583434623216,,,,,,,0.2614605015297809
1745262874.7346811,-0.01228688965728452,-0.006965599074241217,0.1364187403797577,0.041147673788273866,0.01951505819151358,-0.019999012515570586,-0.06333617182072365,0.044392557701795926,0.6084584585804902,-0.011745722195120205,0.05412929990769358,0.05503404859877972,0.04150748328745586,0.06673162826529189,0.0,33627.02814059901,-0.002446039090470198,-0.010582755682224422,0.1744649409884591,0.0,0.0,0.0,0.3012901675224602,TAKEOFF,-0.012548405480823643,-0.006975972057478711,0.13886750977995443,0.044535232603083,0.020609361838641288,-0.016713171987143456,,,,,,,,,,,,,,,,0.039464408554577335,,,,,,,0.24946234805502399
1745262874.7546082,-0.013694147918702824,-0.006434409901172012,0.14890449425197497,0.04627706218133613,0.03802426059353412,-0.016398224109342042,-0.07499124186401154,0.031126789638747134,0.6130150870594097,0.09944014621591395,0.07885311882735353,0.13252222567102573,0.03304309977580561,0.08157196947167301,3.469446951953614e-18,32546.843673492735,-0.002446039090470198,-0.010582755682224422,0.18049074433890833,0.0,0.0,0.0,0.3012901675224602,TAKEOFF,-0.013694147918702824,-0.006434409901172012,0.14890449425197497,0.047900675686159286,0.039381615839541646,-0.014921799471502342,,,,,,,,,,,,,,,,0.0337849066816121,,,,,,,0.23978387938927428
1745262874.7745922,-0.014921863326111723,-0.0059144556665533,0.161048986857059,0.04556802826201827,0.04469977542378582,-0.018977077806425706,-0.06618750731215396,0.021552921587792626,0.5872602514633861,0.030173980895265077,0.07845342741747338,0.046216613655882276,0.02564367864869712,0.07552349163605786,1.734723475976807e-18,32839.03165403144,-0.002446039090470198,-0.010582755682224422,0.18651654768935752,0.0,0.0,0.0,0.3012901675224602,TAKEOFF,-0.014921863326111723,-0.0059144556665533,0.161048986857059,0.04420531687208527,0.0457663287193981,-0.019859269565648624,,,,,,,,,,,,,,,,0.028740839760552587,,,,,,,0.24238969805500163
1745262874.7946994,-0.0161921398619555,-0.005249504769340414,0.1730552017095247,0.05232366569347365,0.051651583977634995,-0.0169318978864293,-0.0655604037659768,0.034502148057832804,0.5790253328514703,0.12522035845908522,0.008169265637145207,0.051818109008838834,0.038120401602900665,0.07846770424735582,-3.469446951953614e-18,32393.364750078723,-0.002446039090470198,-0.010582755682224422,0.19254235103980674,0.0,0.0,0.0,0.3012901675224602,TAKEOFF,-0.0161921398619555,-0.005249504769340414,0.1730552017095247,0.05277109842885601,0.05210087992046605,-0.018139351086643003,,,,,,,,,,,,,,,,0.024436608617815984,,,,,,,0.23841867804276573
1745262874.8144884,-0.017077069387563027,-0.004835999739235239,0.18214282032996862,0.05522515065717836,0.05637095833455118,-0.017845640734695196,-0.06186319811162025,0.027289335247116745,0.551138447495946,0.1162735773080566,0.040484890609580645,0.03475017748856819,0.03179485300751455,0.0746369466812149,0.0,33204.72394053659,-0.002446039090470198,-0.010582755682224422,0.19856815439025594,0.0,0.0,0.0,0.3012901675224602,TAKEOFF,-0.017261029883010953,-0.004688619121480844,0.18430222326690876,0.05658630460175031,0.05557422950532097,-0.016759788397162,,,,,,,,,,,,,,,,0.02273507973187612,,,,,,,0.2456637232921342
1745262874.8347664,-0.017921786551787368,-0.004256646505673723,0.19276529964792852,0.06012015534764702,0.05048847197558654,-0.01727420458602447,-0.03581875290636317,0.02703643752072586,0.5069909562225049,0.18028991391661645,0.006389402230102595,0.032569565921585816,0.031049023574837412,0.052367259407022144,3.469446951953614e-18,34487.24506988248,-0.002446039090470198,-0.010582755682224422,0.20459395774070513,0.0,0.0,0.0,0.3012901675224602,TAKEOFF,-0.018265663121577947,-0.004177913215586348,0.1948483236286214,0.06078366346695167,0.055401847461574526,-0.01973560309599721,,,,,,,,,,,,,,,,0.020480126197753603,,,,,,,0.25726003793193153
1745262874.8546724,-0.01889013550083265,-0.0037310837537904923,0.20269922896689227,0.0626236925477444,0.06299948744111086,-0.019288419326252366,-0.04057341202615082,0.026374921416204206,0.4689091063249159,0.15451415499192186,-0.0761847255715457,0.023342190343834824,0.03016359306371291,0.05539553630915606,0.0,35617.368140655846,-0.002446039090470198,-0.010582755682224422,0.21061976109115435,0.0,0.0,0.0,0.3012901675224602,TAKEOFF,-0.01889013550083265,-0.0037310837537904923,0.20269922896689227,0.06289365061488293,0.06410712986075967,-0.01875762463488202,,,,,,,,,,,,,,,,0.019495859665571363,,,,,,,0.2676304466599334
1745262874.875252,-0.019478743178095684,-0.003206022106312198,0.21170218039204372,0.0638031640780579,0.06078933924215787,-0.016438670211793148,-0.022513867974209414,0.02828102048210917,0.41753394867363164,0.1329143791442829,-0.0019574164170817593,0.047777261148796685,0.03048258722469063,0.0403243115294205,0.0,37393.42092689038,-0.002446039090470198,-0.010582755682224422,0.21664556444160354,0.0,0.0,0.0,0.3012901675224602,TAKEOFF,-0.019478743178095684,-0.003206022106312198,0.21170218039204372,0.0639806878204576,0.058753984622570476,-0.015975898735720147,,,,,,,,,,,,,,,,0.019208494283728936,,,,,,,0.2842314355061611
1745262874.8948107,-0.02003356721407026,-0.002865854319956579,0.21833511281578522,0.059520076961268036,0.061274897511691594,-0.02226518049353823,-0.027417030462389018,0.017657164874861894,0.3954569441716559,0.038462427559311375,-0.08680252883723397,-0.07149777023632325,0.02286480373239301,0.043386774176119136,0.0,38238.35155341167,-0.002446039090470198,-0.010582755682224422,0.22267136779205274,0.0,0.0,0.0,0.3012901675224602,TAKEOFF,-0.020104577499115175,-0.0027222399865785745,0.21984038165123193,0.06097723746531292,0.06567884851351022,-0.021111843550283633,,,,,,,,,,,,,,,,0.01968945960031913,,,,,,,0.2922656752665859
1745262874.9149823,-0.020511117255878054,-0.0023112512924483796,0.22563227659292154,0.05989680896058068,0.05857536455466281,-0.020520103211847055,-0.020838237488917333,0.02372203585364236,0.3408745203120819,0.03996739061540582,-0.029729899288348904,-0.005462854758303805,0.02600002240665548,0.0370392286914929,0.0,40321.605037757065,-0.002446039090470198,-0.010582755682224422,0.22869717114250196,0.0,0.0,0.0,0.3012901675224602,TAKEOFF,-0.02046329558581691,-0.002302315414868057,0.2269774116157496,0.060274310536940004,0.05778527235534888,-0.01897128494238262,,,,,,,,,,,,,,,,0.020103691516545605,,,,,,,0.312475488586434
1745262874.9345846,-0.02082461398026815,-0.001926399361133171,0.232169556779591,0.060127831755393185,0.055764279598975716,-0.01763775691561443,-0.01155877523946323,0.021196301702787957,0.30276421616703386,0.04664860372971266,-0.05322522863286824,0.031631974164209105,0.0237922699062801,0.030159715348217597,1.734723475976807e-18,41775.09011041321,-0.002446039090470198,-0.010582755682224422,0.23472297449295115,0.0,0.0,0.0,0.3012901675224602,TAKEOFF,-0.02082461398026815,-0.001926399361133171,0.232169556779591,0.06075759902521525,0.05642052718650011,-0.017022141214974966,,,,,,,,,,,,,,,,0.020474971593545853,,,,,,,0.32693485392957655
1745262874.9544995,-0.02103848111874957,-0.001611714344661717,0.23784562150672361,0.061655311379810646,0.05191577129517535,-0.018456546407145103,-0.0006508516165208856,0.017486474294396905,0.25980170092098676,0.04348982054605447,-0.07163464148496104,0.017158016662644875,0.020815206314926234,0.022597600970128306,1.734723475976807e-18,43486.63633628756,-0.002446039090470198,-0.010582755682224422,0.24074877784340037,0.0,0.0,0.0,0.3012901675224602,TAKEOFF,-0.02103848111874957,-0.001611714344661717,0.23784562150672361,0.061719230155415535,0.05063437152185115,-0.017510620395354125,,,,,,,,,,,,,,,,0.020846745548655177,,,,,,,0.34436978357437953
1745262874.974855,-0.021225645938446794,-0.0013624844226280877,0.24290105096315157,0.059556453820307304,0.046227420938701955,-0.019840700464543285,-0.0031491449786944107,0.010757074831111447,0.22944289007652302,-0.022054548057828638,-0.07855006162953981,-0.03334799658938707,0.016584610058862734,0.023412452429772523,1.734723475976807e-18,44767.24354374603,-0.002446039090470198,-0.010582755682224422,0.24677458119384957,0.0,0.0,0.0,0.3012901675224602,TAKEOFF,-0.021225645938446794,-0.0013624844226280877,0.24290105096315157,0.057777536575235454,0.04627813518502341,-0.02103846145222273,,,,,,,,,,,,,,,,0.021276542762235572,,,,,,,0.35772407031463316
1745262874.9954672,-0.02122895037047291,-0.001149103989887395,0.24646723901931608,0.059485410639803615,0.04165970749998704,-0.02112389074778315,0.0006530512255844099,0.009787382588169564,0.2060447794111842,-0.014717791963754452,-0.04114397587279567,-0.04515451329176486,0.015760180761562617,0.02062948537107912,1.734723475976807e-18,45933.253625206125,-0.002446039090470198,-0.010582755682224422,0.25280038454429876,0.0,0.0,0.0,0.3012901675224602,TAKEOFF,-0.021180425814259867,-0.0011213284172956358,0.24729900493537235,0.057711355967356714,0.041790667955300856,-0.019491613347641108,,,,,,,,,,,,,,,,0.02195222705434222,,,,,,,0.37012931602511806
1745262875.0148885,-0.021198592536739225,-0.0009232255943937573,0.25065175797071615,0.05856605394313036,0.03786220534220354,-0.018985152111441098,-0.001515926992372849,0.010603256865166215,0.19530199830966233,-0.030010552370704303,-0.04012752510913614,0.012211461000676426,0.016181901754603514,0.021435330039615064,0.0,46550.27929337043,-0.002446039090470198,-0.010582755682224422,0.258826187894748,0.0,0.0,0.0,0.3012901675224602,TAKEOFF,-0.021066772187201703,-0.0008388464385276815,0.25135481808972276,0.06075292424221966,0.04156961545753555,-0.019210349925992028,,,,,,,,,,,,,,,,0.0226226896468079,,,,,,,0.37679369548754266
1745262875.034464,-0.020971280743561995,-0.0007033581712357984,0.25443020410737294,0.05912350637910212,0.036182976863008885,-0.017381059836263216,0.009404466067729742,0.012182646067872883,0.1771722949458162,0.008287578366854337,-0.028024483306348064,0.04920610423862224,0.016829358368566645,0.01505149396294625,0.0,47463.281779488774,-0.002446039090470198,-0.010582755682224422,0.2648519912451972,0.0,0.0,0.0,0.3012901675224602,TAKEOFF,-0.020935048437510848,-0.0007569864885957718,0.2551413987036056,0.05600384258916076,0.0372208160726899,-0.020309708776274405,,,,,,,,,,,,,,,,0.023439298637794072,,,,,,,0.38678760127412554
1745262875.0546772,-0.020694822952489908,-0.000578055184171945,0.25808599143209104,0.054522250215471975,0.028727701932098417,-0.019873124769889436,0.018413236887968976,0.009450351608161314,0.1717357154415483,-0.0745230910316604,-0.060363828747154256,-0.02131728272728419,0.015368992229939493,0.010027105878985587,0.0,47930.86382172725,-0.002446039090470198,-0.010582755682224422,0.2708777945956464,0.0,0.0,0.0,0.3012901675224602,TAKEOFF,-0.020694822952489908,-0.000578055184171945,0.25808599143209104,0.05340683814351946,0.025560937020660257,-0.020184499526227535,,,,,,,,,,,,,,,,0.02442831088457792,,,,,,,0.391969388265721
1745262875.0745702,-0.020451001894749573,-0.0005507143274033665,0.26174548715457463,0.05484099386349581,0.02767373252690308,-0.01940432603468585,0.008814240168069807,-0.004087533388065723,0.1716804270676725,-0.06433477582522702,-0.06050562215141732,-0.023899835375464498,0.008456613487663911,0.014606833480297565,8.673617379884035e-19,48190.11760228452,-0.002446039090470198,-0.010582755682224422,0.2769035979460956,0.0,0.0,0.0,0.3012901675224602,TAKEOFF,-0.020451001894749573,-0.0005507143274033665,0.26174548715457463,0.05344861005502061,0.02557766656588148,-0.020383517705254654,,,,,,,,,,,,,,,,0.025584934279695697,,,,,,,0.39486156529488364
1745262875.0951467,-0.0200267053858689,-0.00038333977145035494,0.2647693820034865,0.0537121076455914,0.022410018673546965,-0.018982794078474415,0.01992016132517685,0.009788670344762607,0.1809936232325386,-0.04818799899967516,-0.011841947001092435,-0.006732855600056569,0.015670071354016903,0.008601813212473663,0.0,48207.181485669076,-0.002446039090470198,-0.010582755682224422,0.28292940129654476,0.0,0.0,0.0,0.3012901675224602,TAKEOFF,-0.019982258561584337,-0.00039983983831550656,0.26552555605553413,0.053513185319347456,0.0265711784129023,-0.020874912277034828,,,,,,,,,,,,,,,,0.02725608579813631,,,,,,,0.3950524106845461
1745262875.114871,-0.019658293287959303,-0.00029066696912730057,0.2687027124241928,0.054043089124437345,0.021380580345673153,-0.019892436928520153,0.02116713832116613,0.011606010507326871,0.1856910704362838,-0.014651082954673579,-0.03703884464076703,0.016649878131471202,0.01667712323949949,0.0076271495912216825,-1.734723475976807e-18,48276.01552229248,-0.002446039090470198,-0.010582755682224422,0.288955204646994,0.0,0.0,0.0,0.3012901675224602,TAKEOFF,-0.019567669854470462,-0.00034962591885526916,0.26954963550352495,0.053122532132978344,0.026664222330120148,-0.0220242770666095,,,,,,,,,,,,,,,,0.02850179337992374,,,,,,,0.39582287380361997
1745262875.1344728,-0.019191416765580466,-0.0002753831065481036,0.27294545839939505,0.05179593787280782,0.020473047964589833,-0.02120822350992203,0.0215830713399131,0.007710074221751072,0.20023299441290354,-0.03891227892180792,-0.0377905730079919,-0.01323265056411928,0.014885765948198869,0.00705169694729002,-8.673617379884035e-19,47956.50170101252,-0.002446039090470198,-0.010582755682224422,0.2949810079974432,0.0,0.0,0.0,0.3012901675224602,TAKEOFF,-0.019191416765580466,-0.0002753831065481036,0.27294545839939505,0.052597478380646316,0.021193359467065707,-0.020592789313600382,,,,,,,,,,,,,,,,0.029533287134755688,,,,,,,0.39225478603538966
1745262875.154574,-0.018755565394551265,-0.0002456592158181563,0.2776878959156641,0.05047468033186621,0.01684043209295478,-0.020756099783123528,0.01724425449537791,0.00422495998543037,0.22949329886321915,-0.08291745089390626,-0.02783148074757294,-0.015520262248170604,0.013513792398122651,0.009093200650174047,0.0,47046.404431790674,-0.002446039090470198,-0.010582755682224422,0.3010068113478924,0.0,0.0,0.0,0.3012901675224602,TAKEOFF,-0.018755565394551265,-0.0002456592158181563,0.2776878959156641,0.048681598895689925,0.016628994646030536,-0.020844058558605494,,,,,,,,,,,,,,,,0.03027586544683267,,,,,,,0.3822043414473358
1745262875.1745093,-0.018197912510580377,-0.0002649605658923217,0.28287037708803464,0.051808975582825864,0.01502405358141247,-0.01910196916510695,0.023204957200222785,0.0005803905893061751,0.2572458968052812,-0.005683069863783009,-0.006102676755415874,-0.008178712442277823,0.011927436485182226,0.005580719631831599,0.0,46118.6395252689,-0.002446039090470198,-0.010582755682224422,0.30703261469834164,0.0,0.0,0.0,0.3012901675224602,TAKEOFF,-0.018197912510580377,-0.0002649605658923217,0.28287037708803464,0.05308560389593271,0.015293526205718756,-0.020102955766875652,,,,,,,,,,,,,,,,0.0306331868835535,,,,,,,0.3721242076877049
1745262875.194637,-0.017695933242485435,-0.0002805057459804163,0.2872127297721823,0.05056025198839662,0.007974394983545807,-0.02207806221248987,0.03570754870362904,-0.0017550337694044796,0.2629491431211053,-0.05988095088184173,-0.02475606942498183,-0.06162204916819315,0.010688662828370794,-0.0016321230066744796,8.673617379884035e-19,46103.8105484183,-0.002446039090470198,-0.010582755682224422,0.31305841804879087,0.0,0.0,0.0,0.3012901675224602,TAKEOFF,-0.01767964026362395,-0.00023900602726750197,0.28843765776965374,0.05018855809240695,0.004056362717125435,-0.020458909105710417,,,,,,,,,,,,,,,,0.03172846084965561,,,,,,,0.3719644038033371
1745262875.2150388,-0.01737916593485555,-0.00025524177576893847,0.2931668408376287,0.050863844698249575,0.008191121775120198,-0.020182268551327306,0.011282985173581613,0.0016575869657259313,0.2803788539484202,-0.042582347205340376,-0.054862625280433605,-1.0579250697888808e-05,0.012812751694777386,0.011398575266016842,-8.673617379884035e-19,45470.938709135735,-0.002446039090470198,-0.010582755682224422,0.31908422139924,0.0,0.0,0.0,0.3012901675224602,TAKEOFF,-0.017236082558000868,-0.0002330608346548937,0.29448466718993216,0.053433230247666184,0.008595066258639775,-0.016103634777061126,,,,,,,,,,,,,,,,0.031644374476578314,,,,,,,0.3651817443381233
1745262875.2346053,-0.016893684106602788,-0.0002774599143158453,0.2997228257138241,0.0503043792385642,0.004356360607167113,-0.018913028930062484,0.02038170910846404,-0.006628662685733987,0.32253522739176876,-0.05970633859850665,0.0351052520662846,-0.008551169624086006,0.008698241543209542,0.006225785627957059,-8.673617379884035e-19,43800.20574175212,-0.002446039090470198,-0.010582755682224422,0.3251100247496892,0.0,0.0,0.0,0.3012901675224602,TAKEOFF,-0.01678168916960314,-0.00024529279784469464,0.30105769477029853,0.051080292026076134,0.008890863369831588,-0.019687885015832032,,,,,,,,,,,,,,,,0.03097488405568108,,,,,,,0.3476144625468174
1745262875.2546847,-0.016410190042558413,-0.0001657470671450221,0.30643676923352947,0.05092283571864682,0.0016333860332442816,-0.01959189681605208,0.02877217752204976,0.008308110391334065,0.31966825840616264,0.0034548463850115176,0.0026050491993995168,0.011017794990943366,0.0174263540128919,0.0008858888441045654,0.0,43843.79637279147,-0.002446039090470198,-0.010582755682224422,0.3311358281001384,0.0,0.0,0.0,0.3012901675224602,TAKEOFF,-0.016410190042558413,-0.0001657470671450221,0.30643676923352947,0.0522853234446465,0.0005045957342734389,-0.01833559479450077,,,,,,,,,,,,,,,,0.030225073849298675,,,,,,,0.3480667966821963
1745262875.2749596,-0.016057066351682064,-0.00019326997194781076,0.3137953444586723,0.04582600585561241,0.003781408581153589,-0.019495564833445708,0.019820683395729132,0.0010024202588846715,0.35722488754381976,-0.07881382722468254,-0.032802068448795435,0.006872036509819204,0.013894319870642557,0.0059448148363787645,1.734723475976807e-18,42218.76039583565,-0.002446039090470198,-0.010582755682224422,0.33716163145058764,0.0,0.0,0.0,0.3012901675224602,TAKEOFF,-0.016057066351682064,-0.00019326997194781076,0.3137953444586723,0.04522609250627189,0.004114226204220052,-0.01912679091085927,,,,,,,,,,,,,,,,0.02896868730574526,,,,,,,0.331410753279106
1745262875.2950275,-0.01573971853729371,-0.00019108011891963818,0.31987619669780304,0.04754430637269873,0.007072227367375143,-0.02154645755096295,0.02139753670536932,0.006747122177893115,0.3698469927482369,-0.03971692664886735,0.004159603310643415,-0.024314231039911264,0.017664231713290728,0.004723280204127268,1.734723475976807e-18,41717.593772751046,-0.002446039090470198,-0.010582755682224422,0.34318743480103686,0.0,0.0,0.0,0.3012901675224602,TAKEOFF,-0.015724675837892277,-0.0002713720485957876,0.3213831493871041,0.044054076492154176,0.004603259054369944,-0.019146972544108083,,,,,,,,,,,,,,,,0.02877712035895086,,,,,,,0.32635698583435824
1745262875.3146062,-0.015439963443442992,-0.00022824108641570707,0.3276921201220668,0.04859360247315047,0.008627663833423975,-0.01946483904939505,0.012819628975070812,0.0058886595019393365,0.3898571740230642,-0.01531794334553515,0.006827033627070296,-0.000507453013400917,0.01767797812033287,0.00996188448648083,0.0,40693.01075614607,-0.002446039090470198,-0.010582755682224422,0.3492132381514861,0.0,0.0,0.0,0.3012901675224602,TAKEOFF,-0.015372957160564096,-0.0003325240388976437,0.3291351571540237,0.050204708121816835,0.004902586644392341,-0.01698858404569044,,,,,,,,,,,,,,,,0.027188537361207788,,,,,,,0.31614120145394137
1745262875.3345532,-0.015174827807266898,-0.0003143201817699216,0.3356420667468216,0.04935491220454945,0.007476839409997838,-0.02092751775840818,0.01021845602052899,0.003557407500315094,0.3923493862892082,0.0012404753028365835,0.025474234631519363,-0.02859266793926091,0.01630194564465558,0.01143407344756353,0.0,40347.745519906544,-0.002446039090470198,-0.010582755682224422,0.3552390415019352,0.0,0.0,0.0,0.3012901675224602,TAKEOFF,-0.015139118997273446,-0.00041356330641136285,0.3371601692395639,0.04902058387508712,0.011354155405619001,-0.024166223206506344,,,,,,,,,,,,,,,,0.025524581277200295,,,,,,,0.3127328517153139
1745262875.3546686,-0.01490963117411205,-0.00047302570663154843,0.34364142773439393,0.05134162339029147,0.006736191670901268,-0.020879149538020957,0.013479896721683097,-0.006220305834373568,0.39259914654710526,0.06735890183045587,0.018752392775793825,0.019586150212432634,0.009962849932138047,0.009125508192681096,-8.673617379884035e-19,40075.48884723807,-0.002446039090470198,-0.010582755682224422,0.3612648448523844,0.0,0.0,0.0,0.3012901675224602,TAKEOFF,-0.01490963117411205,-0.00047302570663154843,0.34364142773439393,0.05390984575334136,0.0061642042827119,-0.019063708627995342,,,,,,,,,,,,,,,,0.02383553227267016,,,,,,,0.3100570827823366
1745262875.374923,-0.014627231585507293,-0.00042832074090069756,0.3516898578552412,0.04999354693126474,0.0067850329600593765,-0.02130792763120073,0.020620957026251756,-0.0011877301641056606,0.38728574546391326,0.02678349087963719,-0.005859594703098639,0.019798187323009996,0.013313070622649211,0.004203572084410023,8.673617379884035e-19,40042.181877450355,-0.002446039090470198,-0.010582755682224422,0.36729064820283364,0.0,0.0,0.0,0.3012901675224602,TAKEOFF,-0.014627231585507293,-0.00042832074090069756,0.3516898578552412,0.051062269800076894,0.006458873674331427,-0.019478357016943153,,,,,,,,,,,,,,,,0.022245868359051697,,,,,,,0.3097304496537955
1745262875.3947237,-0.014585515600725426,-0.0004500245821703568,0.35813749423167,0.04935330267598064,0.005849503208311875,-0.022163856906478076,0.00475035467661001,-0.0018520518199263555,0.390557518593744,0.003745908945189224,-0.032148874293187565,-0.030072787756980923,0.012965274351621444,0.014514399997425764,0.0,39858.11704186535,-0.002446039090470198,-0.010582755682224422,0.37331645155328286,0.0,0.0,0.0,0.3012901675224602,TAKEOFF,-0.014477449797574985,-0.0004572506865817826,0.3596288530413731,0.05297330975402437,0.006861694295411619,-0.01815573801211216,,,,,,,,,,,,,,,,0.02191893872568618,,,,,,,0.3079281494805335
1745262875.4145176,-0.014387066505002242,-0.00046987017322961566,0.36601513841426625,0.05132127188002188,0.007625240514913165,-0.02060740046366299,0.00560575901076255,-0.005421938567131727,0.38465379581018,0.011464254319269814,0.028010764744687812,0.003507870228229679,0.010653148291823372,0.013738130706876017,-8.673617379884035e-19,39858.48726174175,-0.002446039090470198,-0.010582755682224422,0.3793422549037321,0.0,0.0,0.0,0.3012901675224602,TAKEOFF,-0.014321164427607901,-0.0004955405171142295,0.36744979720659454,0.0523177299541572,0.0015491781892829272,-0.018872549862621556,,,,,,,,,,,,,,,,0.0205540901758369,,,,,,,0.3079317698406346
1745262875.434507,-0.01410352515697784,-0.0005002765730340525,0.37352712804732974,0.05090307300306806,0.007828749976776865,-0.01819143905791502,0.023057623341048467,-0.002668578601366134,0.3532681788200035,0.011925422359785333,0.03446704979905269,0.036532293109926235,0.012015678995327515,0.0020125866043201324,0.0,40944.57227764226,-0.002446039090470198,-0.010582755682224422,0.3853680582541813,0.0,0.0,0.0,0.3012901675224602,TAKEOFF,-0.01410352515697784,-0.0005002765730340525,0.37352712804732974,0.050985499015544083,0.010819350493878088,-0.018155079334271296,,,,,,,,,,,,,,,,0.019436074566167156,,,,,,,0.31863526501183215
1745262875.454535,-0.014184322771315103,-0.0006386861471047911,0.3809832049842594,0.04876016530276435,0.0102024765373345,-0.018402342077166105,0.003326269243773352,-0.015129882775153999,0.34672323987005216,-0.00868449777804527,-0.040629616127963286,0.05339368400747725,0.004046916449541649,0.014487838256545205,0.0,41022.370585092576,-0.002446039090470198,-0.010582755682224422,0.3913938616046304,0.0,0.0,0.0,0.3012901675224602,TAKEOFF,-0.014184322771315103,-0.0006386861471047911,0.3809832049842594,0.04935241560911688,0.008458788111525114,-0.016477785108908148,,,,,,,,,,,,,,,,0.01857561826584942,,,,,,,0.3194084317542674
1745262875.4744601,-0.014214314418821154,-0.0005763378011048115,0.3882481337912774,0.05002251700612669,0.011724359946036881,-0.018616722719978235,-0.006024900972756234,0.0039813838737276135,0.35155013290973974,0.009484622025232281,0.021362017187980975,-0.001805390415495396,0.016287429587488595,0.020631659210622155,0.0,40692.87933258066,-0.002446039090470198,-0.010582755682224422,0.39741966495507963,0.0,0.0,0.0,0.3012901675224602,TAKEOFF,-0.014214314418821154,-0.0005763378011048115,0.3882481337912774,0.050565233238609536,0.013300967868074724,-0.0200743276213241,,,,,,,,,,,,,,,,0.01796490152781415,,,,,,,0.3161399008527826
1745262875.4945698,-0.014085794351741248,-0.0006266986482128678,0.3936990787660827,0.04951202549313902,0.011806806230025342,-0.0193648717277891,0.007932700540764984,-0.000311339680968922,0.32258403158445687,0.016673632901389384,0.056295518274253276,0.016978228187060414,0.013033377947690557,0.011244635557761784,8.673617379884035e-19,41917.706353283545,-0.002446039090470198,-0.010582755682224422,0.40344546830552885,0.0,0.0,0.0,0.3012901675224602,TAKEOFF,-0.01418249171478844,-0.0006223653772750259,0.39506902296243207,0.042224514288975425,0.004468607609975145,-0.01966216970553391,,,,,,,,,,,,,,,,0.018154863900933103,,,,,,,0.32837036564668837
1745262875.5148435,-0.014127176387797865,-0.0006873811669654436,0.40029121785522104,0.04682800654262919,0.005344886790744824,-0.021247619142171,0.0018451280546422058,-0.006141829611333393,0.3078273208578347,-0.025883529228953643,-0.0025456578791171335,-0.02217461680000339,0.009293575718878818,0.0148016044536452,0.0,42429.10277292415,-0.002446039090470198,-0.010582755682224422,0.4094712716559781,0.0,0.0,0.0,0.3012901675224602,TAKEOFF,-0.014070148370945095,-0.0006663813402182666,0.401614239174308,0.04935009959417635,0.008151486161126802,-0.019809747263743422,,,,,,,,,,,,,,,,0.017850512405559963,,,,,,,0.33354325469612245
1745262875.5344446,-0.014128768129438342,-0.0008253225863733979,0.4067741560240001,0.046417522099428885,0.011606238241692374,-0.01894094603416292,0.0016365019995342304,-0.01692985870498617,0.3092552543316076,-0.029491746180178028,-0.0035453221081235345,0.0244487722945167,0.002702131904706094,0.015015090619790783,0.0,42309.29688048427,-0.002446039090470198,-0.010582755682224422,0.4154970750064273,0.0,0.0,0.0,0.3012901675224602,TAKEOFF,-0.014137753713129617,-0.0008207695035233868,0.4079516349351904,0.04441649365418165,0.006599705530540838,-0.01890931906508819,,,,,,,,,,,,,,,,0.017543744582954563,,,,,,,0.33232779967510845
1745262875.5547597,-0.014185872786371225,-0.0007885232585779943,0.41283203121994533,0.04789569467300617,0.01208591467254871,-0.016528982292572988,-0.002438020517482308,0.00285604132153495,0.28691987292329113,-0.005370415097515482,0.0066664845566273,0.03235835066419777,0.014289612386600013,0.017108807341947863,0.0,43198.2467241305,-0.002446039090470198,-0.010582755682224422,0.4215228783568765,0.0,0.0,0.0,0.3012901675224602,TAKEOFF,-0.014194546352632103,-0.0007472361051842102,0.41415873829539984,0.04631067748159872,0.015693133772179787,-0.021018111188273226,,,,,,,,,,,,,,,,0.01758640122177716,,,,,,,0.3413997530000054
1745262875.5747852,-0.014265021757988619,-0.0008898089115411742,0.4188426190646284,0.0465320199451888,0.016487904262199756,-0.021401716507456283,0.003785927625859183,-0.0010351242501315948,0.2796677431008458,-0.0017166732427075955,0.019736484064870878,-0.023767217283222813,0.011819663232588857,0.013477294632727066,-8.673617379884035e-19,43478.651128652295,-0.002446039090470198,-0.010582755682224422,0.42754868170732574,0.0,0.0,0.0,0.3012901675224602,TAKEOFF,-0.014265021757988619,-0.0008898089115411742,0.4188426190646284,0.04728581512364975,0.015518442127646326,-0.02134653546202286,,,,,,,,,,,,,,,,0.017590824174352093,,,,,,,0.344287365595866
1745262875.594801,-0.014389906390322827,-0.0009896899617838405,0.42340713033357513,0.04504102436027723,0.014397419689983794,-0.021701396384241456,-0.007680507945879441,-0.007043492285952196,0.2698569486085856,-0.03851843748640822,-0.0031502304762730735,-0.041364006845994346,0.008107557169377173,0.019979149346719183,0.0,44033.2635005106,-0.002446039090470198,-0.010582755682224422,0.43357448505777485,0.0,0.0,0.0,0.3012901675224602,TAKEOFF,-0.014383584305188768,-0.0008605158409444065,0.42454423244256334,0.04827701278170338,0.01643543191166011,-0.017591494016758014,,,,,,,,,,,,,,,,0.01838635303916705,,,,,,,0.35003652613917036
1745262875.6148345,-0.014390685309973702,-0.00089977202266813,0.42904428938320555,0.04762698830145976,0.015620370528246915,-0.018854917522629387,0.005021553439371355,-0.001461982619676842,0.26430466007895115,0.023205424979396164,0.014805568687199226,0.0062388560043906485,0.011337194285429108,0.012663638932434607,0.0,44292.07968367565,-0.002446039090470198,-0.010582755682224422,0.43960028840822407,0.0,0.0,0.0,0.3012901675224602,TAKEOFF,-0.014500544235609928,-0.0008446892047268345,0.43011800499141484,0.04751300312270262,0.012920535295018982,-0.017593750202322983,,,,,,,,,,,,,,,,0.018651108848444523,,,,,,,0.3527368971233157
1745262875.6345534,-0.014467230934166391,-0.0008431415413063077,0.4345198568716537,0.04652108573827411,0.013164998390289747,-0.02033122636620022,0.004959866983597867,0.004726152695625275,0.25294882789207856,0.012774755801093251,-0.01832242551839372,-0.014693024484545705,0.014716620832678202,0.012631249359754904,-8.673617379884035e-19,44797.90228896972,-0.002446039090470198,-0.010582755682224422,0.4456260917586733,0.0,0.0,0.0,0.3012901675224602,TAKEOFF,-0.01456495819440324,-0.0008043839998251996,0.43572607287055737,0.04523442845160272,0.016838497745025858,-0.02172979766328363,,,,,,,,,,,,,,,,0.019045146109247145,,,,,,,0.35804718442558814
1745262875.6545606,-0.014600200825428861,-0.0008831273455121758,0.4400331751545471,0.04633353296028246,0.015384084776471303,-0.019281251067899068,-0.0016120115644663534,-0.003578788655134724,0.25962948836642347,0.008254438234134197,-0.020776579491682743,-0.02014356962792287,0.010119329979905844,0.016576623045634786,8.673617379884035e-19,44600.828203646204,-0.002446039090470198,-0.010582755682224422,0.4516518951091225,0.0,0.0,0.0,0.3012901675224602,TAKEOFF,-0.014600200825428861,-0.0008831273455121758,0.4400331751545471,0.04696720219980323,0.016743286553450004,-0.02086928612754173,,,,,,,,,,,,,,,,0.019411364988911356,,,,,,,0.355973035931051
1745262875.6752765,-0.014703258505635211,-0.0007923342718668134,0.4444547114924036,0.047398822965260906,0.015284614543793118,-0.017494266849793973,-0.003565267191225265,0.003958271469974799,0.2606582405220699,0.012226806961967662,0.00512495672501884,0.013195879852124098,0.014415678877583566,0.017742264022865273,8.673617379884035e-19,44759.72127976681,-0.002446039090470198,-0.010582755682224422,0.45767769845957174,0.0,0.0,0.0,0.3012901675224602,TAKEOFF,-0.014674133908232415,-0.0008137591276880594,0.44557335917216334,0.050249302416307345,0.01995197705661055,-0.014671457981131243,,,,,,,,,,,,,,,,0.020516801980761636,,,,,,,0.3576448175918968
1745262875.6950948,-0.014896578392544222,-0.0006681692786223329,0.450019696769622,0.04303103761474989,0.018156400487554077,-0.01965227330198906,-0.006260877693434286,0.010266415706869179,0.2613051285305996,-0.04326471277896046,0.018797147878981665,-0.012938333114839079,0.018091063826251478,0.019480218829063256,-1.734723475976807e-18,44802.25828473696,-0.002446039090470198,-0.010582755682224422,0.46370350181002096,0.0,0.0,0.0,0.3012901675224602,TAKEOFF,-0.014964656776214514,-0.0008008552543392274,0.4512412650626715,0.04728682985896553,0.01834900809939861,-0.015946432162599392,,,,,,,,,,,,,,,,0.020989556280460748,,,,,,,0.35809310567566305
1745262875.7145493,-0.015203381687674123,-0.0008293447137912537,0.4557580232266676,0.044682646881798745,0.01361735338543802,-0.019280264764166652,-0.023126583394034648,-0.003954370947706077,0.2801915232077114,-0.04693156177159014,0.019719181211661097,-0.022768227041546473,0.010201723225205983,0.02987310540644139,0.0,44107.73477108161,-0.002446039090470198,-0.010582755682224422,0.46972930516047007,0.0,0.0,0.0,0.3012901675224602,TAKEOFF,-0.015162891600966868,-0.0007723409043452155,0.45687517508124786,0.045560354982936854,0.01644245381720106,-0.018719260965791858,,,,,,,,,,,,,,,,0.021285571040857276,,,,,,,0.350812375689532
1745262875.7345743,-0.015134170895309159,-0.000763869832837452,0.4614407617581651,0.04657436105415573,0.011403705031200518,-0.017257776591123715,-0.002510413518058606,0.005570227887462806,0.275970939199375,0.0034229007968961406,0.06183745664777803,0.03630975775912057,0.015637090583905278,0.017977031080062208,0.0,44312.612905233764,-0.002446039090470198,-0.010582755682224422,0.4757551085109193,0.0,0.0,0.0,0.3012901675224602,TAKEOFF,-0.015184161858324939,-0.0008192824527266507,0.46261183396758915,0.052886300521858096,0.01789243721980228,-0.013270275623599507,,,,,,,,,,,,,,,,0.02150115650327539,,,,,,,0.3529516135444084
1745262875.754511,-0.015360526421123575,-0.0006661748828376284,0.4673608477412808,0.0472608012031031,0.013040101403973594,-0.018357384104687464,-0.01196679825223781,0.013079493354909634,0.28303979359778997,-0.011983049073851955,-0.005080076130855153,-0.007661724190219154,0.020181846133230978,0.023802944300298723,0.0,44065.02379370624,-0.002446039090470198,-0.010582755682224422,0.4817809118613685,0.0,0.0,0.0,0.3012901675224602,TAKEOFF,-0.015360526421123575,-0.0006661748828376284,0.4673608477412808,0.04621687594841669,0.010192549979316493,-0.0185515624449623,,,,,,,,,,,,,,,,0.021749961080236784,,,,,,,0.35036729500436864
1745262875.7750463,-0.015365824398572054,-0.000653240203657085,0.4733526137947937,0.0490925682792284,0.013864780871079204,-0.01566973884997155,0.0027657428517999186,0.003985916224032744,0.28551267683717757,0.008610144173515508,0.004147161928414739,0.03629805149222541,0.015075544940390574,0.015483263347690457,-8.673617379884035e-19,43961.98717677573,-0.002446039090470198,-0.010582755682224422,0.48780671521181773,0.0,0.0,0.0,0.3012901675224602,TAKEOFF,-0.015365824398572054,-0.000653240203657085,0.4733526137947937,0.048132034797625525,0.010355320941830906,-0.015185830809982637,,,,,,,,,,,,,,,,0.02178157886426438,,,,,,,0.34929482749667407
1745262875.79482,-0.01558550100506657,-0.0005882499552779746,0.47835212320487736,0.04780275718660255,0.01855829920419061,-0.018678043939848402,-0.007652135260430647,0.0028290463455413195,0.30231811166427824,0.023456944003443038,-0.027239485536029694,0.0014533067022060027,0.01474535194082996,0.022075077689278414,8.673617379884035e-19,43443.15349045757,-0.002446039090470198,-0.010582755682224422,0.49383251856226695,0.0,0.0,0.0,0.3012901675224602,TAKEOFF,-0.01560959524311671,-0.0005999879204323888,0.4795448581259713,0.04838390220950187,0.01858298781678679,-0.01746178951499812,,,,,,,,,,,,,,,,0.022631355340592914,,,,,,,0.34392110789421837
1745262875.8145835,-0.01572102957228209,-0.00048644309234060183,0.48452026065315207,0.04820134201590537,0.017985692116075182,-0.017995905352134457,-0.010529922621991202,0.007088756170709926,0.3010607470002753,-0.030876304839829498,0.0009315831732692294,-0.016939940896820025,0.017351850938517197,0.02391856617946453,-1.734723475976807e-18,43480.899447565804,-0.002446039090470198,-0.010582755682224422,0.4998583219127162,0.0,0.0,0.0,0.3012901675224602,TAKEOFF,-0.015748002152184047,-0.00047062310673800866,0.48578020860672533,0.04940650120140335,0.02426557134653248,-0.017828378178729686,,,,,,,,,,,,,,,,0.02265870745225738,,,,,,,0.3443105701947743
1745262875.8345497,-0.015940072291066112,-0.0006304128829218733,0.4909499730975768,0.05130741132851918,0.0197079756596972,-0.01664184735458294,-0.013259935915603621,-0.005619876916483078,0.3060046673155209,0.044260903402313166,0.019565918344915504,0.04091982689512078,0.009904364437074386,0.025985178912293128,-8.673617379884035e-19,43226.85804329621,-0.002446039090470198,-0.010582755682224422,0.5058841252631654,0.0,0.0,0.0,0.3012901675224602,TAKEOFF,-0.01590343974542762,-0.0006164316964920662,0.492292445670857,0.05108245360576828,0.022456839912984226,-0.017425915583239568,,,,,,,,,,,,,,,,0.02245366251012445,,,,,,,0.3416938134204672
1745262875.854621,-0.016111075265212077,-0.0005093279957492776,0.4975528123545123,0.048031864374093326,0.02085224458460528,-0.020547798792287013,-0.016011888397985837,0.006077127422548959,0.323586759898452,-0.04029975886543348,0.02670687158513956,-0.011663673275775312,0.017309003917288707,0.028475282335993057,1.734723475976807e-18,42487.76711188417,-0.002446039090470198,-0.010582755682224422,0.5119099286136145,0.0,0.0,0.0,0.3012901675224602,TAKEOFF,-0.016111075265212077,-0.0005093279957492776,0.4975528123545123,0.04625628172484921,0.016537025291057304,-0.019333965729888016,,,,,,,,,,,,,,,,0.02223362197863912,,,,,,,0.3341392247694652
1745262875.874486,-0.01621191268781542,-0.0004607354959371415,0.5041697320520475,0.05222526233645191,0.01632952533901158,-0.01707455778483179,-0.011641926577149943,0.0023744713371307924,0.32425635399096275,0.05277027126974222,0.025603951242454147,0.031287456782265195,0.015226968475170577,0.02610206586201902,8.673617379884035e-19,42379.22222653008,-0.002446039090470198,-0.010582755682224422,0.5179357319640637,0.0,0.0,0.0,0.3012901675224602,TAKEOFF,-0.01621191268781542,-0.0004607354959371415,0.5041697320520475,0.053267030561198296,0.017046942127388824,-0.016190599478467547,,,,,,,,,,,,,,,,0.021942135769503476,,,,,,,0.3330369375665448
1745262875.8947415,-0.016260893624049023,-0.00045970391623153926,0.5094706924999198,0.04882447351711589,0.01880615645950788,-0.018932354050756793,-0.0071810024097871145,-0.0037124999131782806,0.3227238191391182,-0.026260702187716645,0.009936084400861639,-0.001246964602609848,0.011551723211133489,0.02341947567974567,0.0,42527.27427237694,-0.002446039090470198,-0.010582755682224422,0.523961535314513,0.0,0.0,0.0,0.3012901675224602,TAKEOFF,-0.01619669282488517,-0.00039130571375535305,0.5108012920432415,0.05155285918130149,0.01408063954460516,-0.016058748577387597,,,,,,,,,,,,,,,,0.02243459177961926,,,,,,,0.33454087786838943
1745262875.9146063,-0.016265754083200246,-0.00042136815309926155,0.5161101260814279,0.05306359445186121,0.02614185297702913,-0.016340300922688747,-0.0014770548904607305,-0.0020736809524098797,0.3160865577059857,0.06761536408102505,-0.009192872009258503,0.03601876217868902,0.012535891375522724,0.019946131961211977,-8.673617379884035e-19,42707.56973045086,-0.002446039090470198,-0.010582755682224422,0.5299873386649622,0.0,0.0,0.0,0.3012901675224602,TAKEOFF,-0.016304848950976957,-0.00047925960895184696,0.5174701599731546,0.05308587086304088,0.021763517417973728,-0.014762024069582514,,,,,,,,,,,,,,,,0.02206389240560127,,,,,,,0.33637695131178824
1745262875.9345636,-0.01639994992542805,-0.00040472355586524756,0.5230169423114605,0.05252681649932004,0.02255780660140541,-0.015460359438639814,-0.006927805994742941,0.009360774451890833,0.33553086315646763,0.02602603110682382,-0.03109930661822849,0.03415809614597062,0.01990298397792767,0.024013730501263764,-1.734723475976807e-18,41849.64819959932,-0.002446039090470198,-0.010582755682224422,0.5360131420154114,0.0,0.0,0.0,0.3012901675224602,TAKEOFF,-0.016556151749450004,-0.0005594098900666571,0.524343093782332,0.04676350934092031,0.02681309502323559,-0.020166998375852098,,,,,,,,,,,,,,,,0.021614929384574176,,,,,,,0.32768494050877384
1745262875.9545932,-0.016599118340803208,-0.0005474640358007134,0.5297921252994429,0.05046706206644554,0.025960280125901812,-0.01890644577479642,-0.01387728499507351,-0.003945801852167712,0.32808078205526614,-0.02027730384200275,-0.006707549117206415,-0.02355884651315671,0.011567843884134009,0.02836323192093304,0.0,42045.287417953405,-0.002446039090470198,-0.010582755682224422,0.5420389453658606,0.0,0.0,0.0,0.3012901675224602,TAKEOFF,-0.016599118340803208,-0.0005474640358007134,0.5297921252994429,0.04948020737940115,0.023889344012096036,-0.019360454133794638,,,,,,,,,,,,,,,,0.02123679195251017,,,,,,,0.3296571427447061
1745262875.9748728,-0.01651468010718867,-0.0005003879668774152,0.5363435832027369,0.05216945355942217,0.02392095350793586,-0.016336055386558534,0.004750838036108864,-0.004140749647750313,0.3081704837623991,0.037364504951750255,0.020538749274143883,0.033757646193611754,0.01128681000333926,0.016642960701520604,0.0,42754.23941865119,-0.002446039090470198,-0.010582755682224422,0.5480647487163097,0.0,0.0,0.0,0.3012901675224602,TAKEOFF,-0.01651468010718867,-0.0005003879668774152,0.5363435832027369,0.0534798708354141,0.02334584542063636,-0.015241709580962515,,,,,,,,,,,,,,,,0.020903744157478917,,,,,,,0.33685304858557713
1745262875.994703,-0.016527364685048302,-0.00044171179341198754,0.5417571191798966,0.05050423799199632,0.021513065456740883,-0.017551103587234888,0.00032947381790545955,0.004276179028983572,0.3193886149511185,-0.002240906686669297,-0.02768230733570943,0.020264989033586697,0.01656181100465591,0.01953560832694823,3.469446951953614e-18,42403.38211331006,-0.002446039090470198,-0.010582755682224422,0.554090552066759,0.0,0.0,0.0,0.3012901675224602,TAKEOFF,-0.016452756551068495,-0.0004491139252319989,0.5431674628967751,0.0479654815246669,0.018219847957144174,-0.016856300620419006,,,,,,,,,,,,,,,,0.021289388634483594,,,,,,,0.3332821267716874
1745262876.0144868,-0.016548358417636765,-0.0005768544967696582,0.5484552068374567,0.052580463377530445,0.024534205010368012,-0.014076600865658297,-0.0009450960599882193,-0.011683419243419087,0.31339951127437304,0.041228910956533645,-0.03301134279103038,0.06783407526260335,0.006824277125337603,0.020274363271042484,0.0,42538.488217448525,-0.002446039090470198,-0.010582755682224422,0.5601163554172082,0.0,0.0,0.0,0.3012901675224602,TAKEOFF,-0.01658813758000675,-0.0005211899642983268,0.5498487703885421,0.05389710412612688,0.021746466963342734,-0.018377998537177087,,,,,,,,,,,,,,,,0.02085607477780753,,,,,,,0.3346549295903319
1745262876.0345984,-0.01647517618139028,-0.0005779028007250693,0.5550971599454864,0.05242385948188385,0.02247017329709429,-0.01551366087642893,0.006572637747299883,-0.001968720594630567,0.3177151465382029,0.0332056249482206,-0.01868647898905219,0.026114581232652156,0.012747836227508146,0.015858124195778256,-8.673617379884035e-19,42301.408244845734,-0.002446039090470198,-0.010582755682224422,0.5661421587676574,0.0,0.0,0.0,0.3012901675224602,TAKEOFF,-0.016517068251693367,-0.0005842346923211821,0.5563780823378002,0.05007375717788877,0.02595295355313706,-0.014910421360883634,,,,,,,,,,,,,,,,0.020467187585939472,,,,,,,0.33224784543699337
1745262876.0545547,-0.016461832346632663,-0.0006367347322084865,0.5616426621164191,0.05154499012073272,0.026411431038173727,-0.015219900249558566,-0.001597168515050453,-0.0020066038467733173,0.3159301660596981,-0.0324502961977694,-0.026423101267372198,0.010851480213333735,0.012681331256100476,0.0207923879231644,0.0,42312.88348196389,-0.002446039090470198,-0.010582755682224422,0.5721679621181066,0.0,0.0,0.0,0.3012901675224602,TAKEOFF,-0.016461832346632663,-0.0006367347322084865,0.5616426621164191,0.04940325463789484,0.023595066473596063,-0.015618201914966556,,,,,,,,,,,,,,,,0.02015310729051895,,,,,,,0.3323641543704212
1745262876.0747325,-0.016533223859768468,-0.0007797967038811781,0.5682041505491021,0.047625149544700436,0.02559317589708529,-0.014948836785383581,-0.007518531322413095,-0.006199498081119484,0.32154580053636106,-0.05878737824662046,-0.00380258673205504,0.0074521881747402294,0.010105522578461725,0.024696332893213713,-8.673617379884035e-19,42029.76459025881,-0.002446039090470198,-0.010582755682224422,0.5781937654685557,0.0,0.0,0.0,0.3012901675224602,TAKEOFF,-0.016533223859768468,-0.0007797967038811781,0.5682041505491021,0.046989296936373326,0.026214344716905622,-0.015544992339640896,,,,,,,,,,,,,,,,0.019857975367453744,,,,,,,0.3295004483363575
1745262876.0947146,-0.016345345003480168,-0.0007112463441222771,0.5732265254927026,0.048121410697312995,0.02011876272792913,-0.01717320030349108,0.012988563718227503,-0.0008410190118729095,0.2978181658950143,-0.0026628437179987176,0.01621201496825125,0.011466302502883045,0.013043891056223032,0.011690834815039075,-8.673617379884035e-19,43081.880697602435,-0.002446039090470198,-0.010582755682224422,0.5842195688190049,0.0,0.0,0.0,0.3012901675224602,TAKEOFF,-0.016383224803408182,-0.0007134273180183169,0.5746118115691371,0.045682298957722085,0.0221412313269259,-0.017719020030483573,,,,,,,,,,,,,,,,0.020285078334816273,,,,,,,0.3402051195901107
1745262876.114565,-0.01625773445492728,-0.0007369871811861367,0.5795771398128898,0.04952815372770672,0.02017170242604658,-0.016119860765566738,0.012714724464605559,-0.0015758391916448028,0.29872726598260213,0.02033611692447326,-0.03324663163721242,-0.004393356414771685,0.012639049265004218,0.011815743254335542,-8.673617379884035e-19,43005.608249392266,-0.002446039090470198,-0.010582755682224422,0.5902453721694542,0.0,0.0,0.0,0.3012901675224602,TAKEOFF,-0.016285999718578435,-0.0008663695561449942,0.5809274371217517,0.04897665854312869,0.015972315313786584,-0.012595771721534718,,,,,,,,,,,,,,,,0.020037795982349182,,,,,,,0.33942326477296614
1745262876.1344647,-0.016193650544050257,-0.0009566617716762696,0.5859769951627243,0.04689715120901383,0.018448497840991306,-0.016236873021411465,0.012402846774915753,-0.010241468954921784,0.29679467030561363,-0.03576260775721251,-0.05373172442840513,0.022072033770374776,0.007299243164580193,0.011953900031059339,-4.336808689942018e-19,43031.66659525908,-0.002446039090470198,-0.010582755682224422,0.5962711755199034,0.0,0.0,0.0,0.3012901675224602,TAKEOFF,-0.016193650544050257,-0.0009566617716762696,0.5859769951627243,0.046708102811722954,0.019719725128499718,-0.01478055363334894,,,,,,,,,,,,,,,,0.019688287225643322,,,,,,,0.3396902800527545
1745262876.1546772,-0.016182657294171957,-0.0009917505263599064,0.5923048236361017,0.04910987434406138,0.018077509568452575,-0.014592444388133686,-0.005954067677263901,-0.0050094998116077104,0.30331580585945,-0.014021035362463873,-0.04333130988060158,0.017477500871723735,0.010455692096394296,0.022978489473233665,0.0,42749.4203273696,-0.002446039090470198,-0.010582755682224422,0.6022969788703526,0.0,0.0,0.0,0.3012901675224602,TAKEOFF,-0.016182657294171957,-0.0009917505263599064,0.5923048236361017,0.04836846035389358,0.013530801948451176,-0.014494984845029351,,,,,,,,,,,,,,,,0.019507055795261824,,,,,,,0.33680387118223054
1745262876.1747484,-0.01601294935911834,-0.0011698824640551878,0.5985207136832795,0.04895789711117018,0.021596225066743847,-0.01598985391678674,0.008551975631984317,-0.018441117860917757,0.30354535489627016,0.0008174114489194975,0.024168150935657114,-0.0022913343295018814,0.0023024241269485025,0.01422506475178964,2.168404344971009e-19,42699.36813986453,-0.002446039090470198,-0.010582755682224422,0.6083227822208018,0.0,0.0,0.0,0.3012901675224602,TAKEOFF,-0.01601294935911834,-0.0011698824640551878,0.5985207136832795,0.04912440451058308,0.021260317317448096,-0.01621893446942757,,,,,,,,,,,,,,,,0.019202702520040315,,,,,,,0.3362933186611423
