TIME,POS_X,POS_Y,POS_Z,ROLL,PITCH,YAW,VEL_X,VEL_Y,VEL_Z,ROLL_RATE,PITCH_RATE,YAW_RATE,CMD_ROLL,CMD_PITCH,CMD_YAW,CMD_THRUST,DES_POS_X,DES_POS_Y,DES_POS_Z,DES_YAW,DES_VEL_X,DES_VEL_Y,DES_VEL_Z,STATUS,VICON_POS_X,VICON_POS_Y,VICON_POS_Z,VICON_ROLL,VICON_PITCH,VICON_YAW,ACC_X,ACC_Y,ACC_Z,ROLL_ACC,PITCH_ACC,YAW_ACC,PITCH_PRED,PITCH_ACT,OBS_POS_X,OBS_POS_Z,OBS_VEL_X,OBS_VEL_Z,OBS_PITCH,OBS_PITCH_RATE,INFERENCE_TIME,POS_ERROR,VICON_VEL_X,VICON_VEL_Y,VICON_VEL_Z,VICON_ROLL_RATE,VICON_PITCH_RATE,VICON_YAW_RATE,CMD_FORCE
1745262790.0632403,-0.00729050026609253,0.0345686048059102,0.05415310453120012,0.04908569297328172,0.020916627851747763,0.06882779495037783,-0.002029114710780701,0.0049301348195175945,-0.0004380644999018796,0.005248708559534478,0.008909625761236916,0.0024595671663775968,0.002220451353200551,0.0009138787707887452,-2.168404344971009e-19,52364.21750968277,-0.00729050026609253,0.0345686048059102,0.05415310453120012,0.0,0.0,0.0,0.3012251259454777,TAKEOFF,-0.007264866454449781,0.034557861360495275,0.05408321860799284,0.04808436196626307,0.02007353325515217,0.06792953638772395,,,,,,,,,,,,,,,,0.0,,,,,,,0.44349007324928263
1745262790.0795634,-0.007270955068641742,0.034488740932958485,0.054146039069955694,0.04784626607140638,0.020408142965077338,0.06869589965595406,-0.0010245375689922512,-0.005925310457019274,0.0019005952330810962,-0.013431663830465429,-0.03189856874309792,0.008393451301490506,-0.0027005796308900852,0.00043727525506387366,0.0,52897.65482240538,-0.00729050026609253,0.0345686048059102,0.060177607050109674,0.0,0.0,0.0,0.3012251259454777,TAKEOFF,-0.007267867964980182,0.034571878872364056,0.054138928473431026,0.04969009299040441,0.02080098411078205,0.06923825538716341,,,,,,,,,,,,,,,,0.006032128360053771,,,,,,,0.4500140876231671
1745262790.099508,-0.007282693002196956,0.03452910540648381,0.05415216494748492,0.04798293188366124,0.01894147183698353,0.06803230263544559,-0.0038632044116384758,-0.0034864541278371965,0.003634634283701868,-0.01659339871889537,-0.03197905720642209,-0.005422390836681255,-0.0015588706531002284,0.0016818816640542522,0.0,53453.221805525776,-0.00729050026609253,0.0345686048059102,0.06620210956901923,0.0,0.0,0.0,0.3012251259454777,TAKEOFF,-0.007282693002196956,0.03452910540648381,0.05415216494748492,0.04764195701016905,0.021769945386233072,0.06781341519730977,,,,,,,,,,,,,,,,0.012050011889536385,,,,,,,0.45689196923696973
1745262790.1192925,-0.007223876304994747,0.03458867641717169,0.05414462620224213,0.04915349737116206,0.019323834933210302,0.06974127514107065,0.0060216156440262136,0.0027188993458748477,-0.00044970520926731973,0.005398534205381878,-0.02761219947025387,0.025898110088704816,0.001182127328828204,-0.0026377551893119744,-1.0842021724855044e-19,54182.622037128895,-0.00729050026609253,0.0345686048059102,0.07222661208792877,0.0,0.0,0.0,0.3012251259454777,TAKEOFF,-0.007223876304994747,0.03458867641717169,0.05414462620224213,0.04888663608284351,0.01665636195826676,0.07049106919445154,,,,,,,,,,,,,,,,0.01808211976489322,,,,,,,0.4660562470469046
1745262790.1396742,-0.0072724117039201334,0.03456788469897595,0.054166541277813826,0.048626947341932375,0.020025246472575607,0.06859627237164273,0.0006638602666061827,0.0009569402677539643,-0.0006574030235269633,-0.0022753011516202814,-0.03776805459704087,-0.003804361947787955,0.0004026825790670923,-0.00029541202172689296,0.0,54779.109945536555,-0.00729050026609253,0.0345686048059102,0.07825111460683834,0.0,0.0,0.0,0.3012251259454777,TAKEOFF,-0.0071841021113100865,0.03457588197811124,0.05411629121809139,0.04956267483804483,0.015373656172581128,0.07025394420013893,,,,,,,,,,,,,,,,0.02408458013243732,,,,,,,0.47366905412451266
1745262790.1595285,-0.007319746978476031,0.03457123376620428,0.05421357001518072,0.04880465934600825,0.02054925748831201,0.0680036833015578,-0.004516523214679327,0.0001621189988097061,0.004068204388111593,-0.0045299407589929844,-0.0312793925179939,-0.022836707641055894,6.95475520854902e-05,0.0019063575594748805,-6.776263578034403e-21,55213.36980514292,-0.00729050026609253,0.0345686048059102,0.08427561712574788,0.0,0.0,0.0,0.3012251259454777,TAKEOFF,-0.007310046489782563,0.03458350522139418,0.054184727728919774,0.0500351558404053,0.01771415169478995,0.06985519569340595,,,,,,,,,,,,,,,,0.030062061452262,,,,,,,0.4792813173737641
1745262790.1794186,-0.007266759819321885,0.034568656175460975,0.05419859823689731,0.04882060258214948,0.01796099971715747,0.06927617948214436,0.002801367036199545,-0.0011968233622616994,0.0005648905288613451,-0.003510010100764212,-0.022441949257122486,0.01706881111823571,-0.0004897380073233926,-0.0011655870898241718,0.0,55896.3711030003,-0.00729050026609253,0.0345686048059102,0.09030011964465744,0.0,0.0,0.0,0.3012251259454777,TAKEOFF,-0.0072929637128556195,0.03459394497282257,0.054149220321126505,0.04653255570448736,0.020525905302273717,0.06685685166044388,,,,,,,,,,,,,,,,0.036101529213683106,,,,,,,0.4882326191581666
1745262790.1992884,-0.007334769766940921,0.034561064896675694,0.05415467341274325,0.04721976675108488,0.018911840227470004,0.06903537320721839,-0.00654964118343189,-0.002060916702828106,-0.002354906906566916,-0.01404323225054276,-0.027946283903606598,0.004290544434513486,-0.0008344247661386166,0.0026673405263690775,5.421010862427522e-20,56559.794758046526,-0.00729050026609253,0.0345686048059102,0.09632462216356699,0.0,0.0,0.0,0.3012251259454777,TAKEOFF,-0.007334769766940921,0.034561064896675694,0.05415467341274325,0.04752315714164342,0.01954884342165064,0.06900061950824755,,,,,,,,,,,,,,,,0.0421699726616705,,,,,,,0.4970796780531938
1745262790.21934,-0.007358761832848463,0.034620532599593745,0.054505499272798734,0.04514757931786409,0.015673746589200305,0.0656030173322695,-0.005070717248278269,0.000996643436332205,0.014107004911472862,-0.058398108557939525,-0.022043308410492728,-0.034239097970262256,0.000441623295446781,0.0020901442622283106,2.710505431213761e-20,56607.98469570074,-0.00729050026609253,0.0345686048059102,0.10234912468247655,0.0,0.0,0.0,0.3012251259454777,TAKEOFF,-0.007358761832848463,0.034620532599593745,0.054505499272798734,0.0438878565691443,0.01601266131262495,0.06587191769484768,,,,,,,,,,,,,,,,0.047843702286495565,,,,,,,0.49772837681106286
1745262790.2398436,-0.007469772247976023,0.03474875162670644,0.05487886957833808,0.039418883917809525,0.007718786475913574,0.06341525224896637,-0.010971322089828213,0.004374186973648375,0.029278391295616376,-0.12045957114243576,-0.01306277723144293,-0.06180406859925242,0.0018966349540118822,0.004538476646361422,0.0,56700.359209822345,-0.00729050026609253,0.0345686048059102,0.1083736272013861,0.0,0.0,0.0,0.3012251259454777,TAKEOFF,-0.007932273205500268,0.034616350565586276,0.05544449235187771,0.02958398994663743,0.03719553501642717,0.06288769430304021,,,,,,,,,,,,,,,,0.05349536133599983,,,,,,,0.4989742023586042
1745262790.2592416,-0.007889695762037853,0.035055479772353786,0.056420136987578064,0.021117182112144084,-0.010444825357144081,0.062021375504628204,-0.023466330947097214,0.015409795328413384,0.07784694737736889,-0.2901090612227491,0.008368332315944662,-0.08116828300890899,0.006749587386857235,0.01016049799075125,4.336808689942018e-19,55684.798144521614,-0.00729050026609253,0.0345686048059102,0.11439812972029566,0.0,0.0,0.0,0.3012251259454777,TAKEOFF,-0.008011473720623366,0.0350491012285569,0.056827679890596644,0.018941798173281506,-0.0165911117278562,0.06215832948664073,,,,,,,,,,,,,,,,0.057983133097396215,,,,,,,0.4854431501940319
1745262790.2793558,-0.008413852948530825,0.0354063270109545,0.05907546757520101,0.003112412437063312,-0.028763921353035314,0.059992846051939525,-0.03106583076805399,0.022328675301393285,0.14996318996059965,-0.4263685594648136,0.046660235283272365,-0.09075032612914075,0.010417204914015746,0.014455331059569643,-1.734723475976807e-18,53751.29299806888,-0.00729050026609253,0.0345686048059102,0.12042263223920521,0.0,0.0,0.0,0.3012251259454777,TAKEOFF,-0.008413852948530825,0.0354063270109545,0.05907546757520101,0.0015073386916393363,-0.028318614554556476,0.05913951292651165,,,,,,,,,,,,,,,,0.06136316738935834,,,,,,,0.4606181802145226
1745262790.2992885,-0.009044853650213762,0.03590036784970917,0.06293824387127979,0.003948648136334711,-0.038500945338823804,0.06143726023855772,-0.03475524142097592,0.02218042159304738,0.20689149114188193,-0.26942607935383683,0.07462569790954739,-0.058510872458544104,0.011273638353953026,0.017359810981954604,0.0,52107.804653391824,-0.00729050026609253,0.0345686048059102,0.12644713475811475,0.0,0.0,0.0,0.3012251259454777,TAKEOFF,-0.009044853650213762,0.03590036784970917,0.06293824387127979,0.005389087403175989,-0.032587733558173855,0.06017138977488854,,,,,,,,,,,,,,,,0.06354707365628347,,,,,,,0.4403811450038474
1745262790.3193877,-0.010063422134216266,0.036438811573786666,0.06857219960808449,0.010355045925711803,-0.045920459714267885,0.06066923293105178,-0.0623957981967387,0.018358899129892754,0.29553551894243946,-0.08953804003164827,0.09570651816225098,-0.027733018061555245,0.010895599665753458,0.03346464625091827,8.673617379884035e-19,49094.507494327045,-0.00729050026609253,0.0345686048059102,0.13247163727702432,0.0,0.0,0.0,0.3012251259454777,TAKEOFF,-0.010063422134216266,0.036438811573786666,0.06857219960808449,0.013324286640837471,-0.04124141277577195,0.061113837295835985,,,,,,,,,,,,,,,,0.0639869119699338,,,,,,,0.40506069019996216
1745262790.339553,-0.01071282828003265,0.03708415882167133,0.07392189050891385,0.021565372979197195,-0.04478555429446063,0.0556236007176391,-0.048716075714531695,0.03217778401714459,0.3394534930268588,0.06856274851314963,0.14906387472912122,-0.08736678168577924,0.019126585107033543,0.028548353152182404,0.0,47629.260630107485,-0.00729050026609253,0.0345686048059102,0.13849613979593386,0.0,0.0,0.0,0.3012251259454777,TAKEOFF,-0.010895215745301574,0.03728743849911351,0.07541150322613714,0.026988767998648362,-0.04125439950472182,0.053109774596458485,,,,,,,,,,,,,,,,0.06471378533221045,,,,,,,0.38862197084402267
1745262790.3593597,-0.012019898401330206,0.037783982724436664,0.08206083095921325,0.030341616741768277,-0.02623994537606796,0.042238349487835884,-0.06367497671214856,0.029649229341523406,0.4144953810002939,0.11056418872224069,0.08164070017279709,-0.24456606381658658,0.0202499562172574,0.04100255302402833,0.0,44640.0697586736,-0.00729050026609253,0.0345686048059102,0.1445206423148434,0.0,0.0,0.0,0.3012251259454777,TAKEOFF,-0.012379316937284359,0.03796356045699422,0.08387981128240701,0.0331414808711218,-0.015858936708591117,0.0380041989781902,,,,,,,,,,,,,,,,0.06272108016019369,,,,,,,0.3563855095977869
1745262790.3793378,-0.013662398211546254,0.03875990765839609,0.0913802824984328,0.038073721511839596,-0.009986485316881974,0.03785714981012047,-0.09004914385965393,0.047270857353708146,0.47492938979390376,0.16636274347607616,0.11322856617332076,-0.22678436840434885,0.03390678453249038,0.0625147328841218,-3.469446951953614e-18,41938.04172365025,-0.00729050026609253,0.0345686048059102,0.15054514483375298,0.0,0.0,0.0,0.3012251259454777,TAKEOFF,-0.013662398211546254,0.03875990765839609,0.0913802824984328,0.03816167231001316,-0.004947376041065542,0.03644598607143876,,,,,,,,,,,,,,,,0.05965441340073609,,,,,,,0.32857530224321874
1745262790.3997476,-0.015283012161855245,0.039954224068675936,0.10151040912888078,0.03325229394966685,-0.005468869689403987,0.034154231746497545,-0.09269829514689408,0.06966818562675604,0.5154783337559709,0.03544488750342206,0.13480386657686003,-0.21190462584853267,0.05237269247744681,0.07061826328229315,3.469446951953614e-18,39819.461960341796,-0.00729050026609253,0.0345686048059102,0.15656964735266254,0.0,0.0,0.0,0.3012251259454777,TAKEOFF,-0.015283012161855245,0.039954224068675936,0.10151040912888078,0.03147441978016712,-0.00233370748674764,0.03347991591668431,,,,,,,,,,,,,,,,0.0558963760455947,,,,,,,0.30755024761137406
1745262790.4192512,-0.017152676905722777,0.04097564197152142,0.11250686847497005,0.03487398210489819,-0.008022677484841305,0.035119014489332384,-0.09159509230959101,0.06452075477770026,0.5522493073919889,0.0639799099640268,0.10635183255433871,-0.13821932180829888,0.0540427609336019,0.07760071419674076,-3.469446951953614e-18,37645.28606524671,-0.00729050026609253,0.0345686048059102,0.16259414987157209,0.0,0.0,0.0,0.3012251259454777,TAKEOFF,-0.017152676905722777,0.04097564197152142,0.11250686847497005,0.03457261881662015,-0.010879853831844345,0.03563009236971728,,,,,,,,,,,,,,,,0.05144947435120391,,,,,,,0.28661690144218455
1745262790.4395716,-0.01874441512461698,0.04168293048701675,0.12160889396573797,0.03546396187053848,-0.007939907400172768,0.029383026474443304,-0.09968969006188122,0.04306185493371714,0.5546115437127153,0.06328872550175775,0.13526334271304857,-0.1744400490716128,0.040776492234398956,0.08693898988630555,-3.469446951953614e-18,37127.06520072023,-0.00729050026609253,0.0345686048059102,0.16861865239048163,0.0,0.0,0.0,0.3012251259454777,TAKEOFF,-0.019233889181870148,0.0418987166164638,0.12400876928651391,0.035844510672659174,0.0014703785823723754,0.025402202323373094,,,,,,,,,,,,,,,,0.0489052469847146,,,,,,,0.28171733839522084
1745262790.4595394,-0.02073519548573016,0.04270585624873953,0.13344330219617181,0.04604381952520923,0.00803735410114819,0.02623820346210059,-0.0942020774123037,0.04822883795872347,0.5787306857029504,0.1737035543985871,0.14935273950383385,-0.1707285376178716,0.048837990100990915,0.09133737946717058,0.0,35367.13381401302,-0.00729050026609253,0.0345686048059102,0.1746431549093912,0.0,0.0,0.0,0.3012251259454777,TAKEOFF,-0.021096687723424736,0.042840839106966136,0.13572375274170145,0.051729672124370574,0.013152348297019811,0.030199371473558934,,,,,,,,,,,,,,,,0.044095380190942286,,,,,,,0.26532159991444865
1745262790.4792647,-0.02265583038070267,0.04365316417200032,0.1451533839117533,0.058525892038052835,0.03006147266785855,0.02293217819062425,-0.08986380278546885,0.04777004196302234,0.5687293252223451,0.2566666005455588,0.11531683757285978,-0.1623051732301412,0.05053919409320555,0.09207729971607903,0.0,35079.88188661959,-0.00729050026609253,0.0345686048059102,0.18066765742830074,0.0,0.0,0.0,0.3012251259454777,TAKEOFF,-0.02265583038070267,0.04365316417200032,0.1451533839117533,0.05840974834079844,0.03313812747639132,0.02206900528519668,,,,,,,,,,,,,,,,0.03974778247670054,,,,,,,0.26268010776220185
1745262790.4994023,-0.024491921614979942,0.04455267912106802,0.15681891856567776,0.06879569870415797,0.050173220271906654,0.0212074980992016,-0.08712125907781534,0.04405144836745001,0.5512482318644629,0.30392885115321266,0.07440012501499943,-0.10969452003109462,0.04911944874948279,0.0928625835847403,-3.469446951953614e-18,35100.89122145538,-0.00729050026609253,0.0345686048059102,0.1866921599472103,0.0,0.0,0.0,0.3012251259454777,TAKEOFF,-0.024491921614979942,0.04455267912106802,0.15681891856567776,0.06859970299911064,0.05495856888943849,0.021288951144475637,,,,,,,,,,,,,,,,0.03588845478690693,,,,,,,0.26287298341455423
1745262790.5193222,-0.026338877273640805,0.04539233237043881,0.16814492817184404,0.07107207208036898,0.06465239760793459,0.018550889102732077,-0.08983426992671242,0.03919201662292102,0.5507462208141763,0.22167961983290077,0.05095116905581473,-0.13907067021219657,0.0479060188889877,0.10022246327439199,3.469446951953614e-18,34421.383984749256,-0.00729050026609253,0.0345686048059102,0.19271666246611985,0.0,0.0,0.0,0.3012251259454777,TAKEOFF,-0.026338877273640805,0.04539233237043881,0.16814492817184404,0.06958988007145549,0.0649919014285549,0.016662874745351015,,,,,,,,,,,,,,,,0.032920569120859985,,,,,,,0.2566601313241975
1745262790.540719,-0.027667934301464917,0.04615664439725884,0.1768080010196138,0.07306921223436157,0.06809970894744276,0.018125609036934363,-0.08179374456011408,0.042430872638097014,0.5270332451529887,0.21437384310235333,0.06547387884331753,-0.06605130521934939,0.050452082121228245,0.09384947405160138,3.469446951953614e-18,35098.552021029245,-0.00729050026609253,0.0345686048059102,0.1987411649850294,0.0,0.0,0.0,0.3012251259454777,TAKEOFF,-0.027978037163034212,0.046264798873022615,0.17889073794906796,0.06843638954601455,0.0680602082399725,0.01446785219638526,,,,,,,,,,,,,,,,0.03210274382308187,,,,,,,0.2628515059511352
1745262790.5596993,-0.029448293233328874,0.04687027830298833,0.18722486530236523,0.06840848234652344,0.074133680195961,0.0164589191333495,-0.08671088419329476,0.041101590407775015,0.49964665177267564,0.10656535981482965,-0.0010642474589797344,-0.07423746125597433,0.04953708402512366,0.09830565245532097,-3.469446951953614e-18,35710.647507565634,-0.00729050026609253,0.0345686048059102,0.20476566750393896,0.0,0.0,0.0,0.3012251259454777,TAKEOFF,-0.029834952830614287,0.04701278642526348,0.18922638905659397,0.0607278422590067,0.06899457982541796,0.014951754254891165,,,,,,,,,,,,,,,,0.030821724511817254,,,,,,,0.2684929740975958
1745262790.5792458,-0.030914658098545437,0.04760978346193627,0.1967631926675528,0.06689707948227362,0.06358745450641462,0.01861680246951494,-0.06867637603369653,0.034561362171521705,0.448506056062942,0.07601771896134513,0.031128811612368877,-0.05561706465791001,0.043204720799891086,0.08228581831911796,3.469446951953614e-18,37387.01146738914,-0.00729050026609253,0.0345686048059102,0.2107901700228485,0.0,0.0,0.0,0.3012251259454777,TAKEOFF,-0.030914658098545437,0.04760978346193627,0.1967631926675528,0.06680958823906546,0.059473846660642156,0.018136347247684034,,,,,,,,,,,,,,,,0.03041264979834895,,,,,,,0.28417083385121505
1745262790.5992396,-0.03215908050038985,0.04815323258989642,0.20564892369080556,0.06579739368984035,0.06560709203276766,0.012697701442111506,-0.05425483135132386,0.026264862658193274,0.41688966781631953,0.040557535036870776,-0.04356886098398312,-0.08828517194103463,0.036981728784025836,0.07172665363949271,0.0,38312.60178817971,-0.00729050026609253,0.0345686048059102,0.21681467254175807,0.0,0.0,0.0,0.3012251259454777,TAKEOFF,-0.03215908050038985,0.04815323258989642,0.20564892369080556,0.06540183902724697,0.06538604699480971,0.013394962091727155,,,,,,,,,,,,,,,,0.03045754984074853,,,,,,,0.2929760630860584
1745262790.6194403,-0.03337866968268397,0.04867189387440316,0.21389643631424032,0.07230238558203382,0.06690415815673059,0.013646675463720654,-0.0569572621849761,0.02442714234137849,0.3874651057473617,0.11411375025635856,-0.05233526894778415,-0.05989854132958451,0.03539332052593475,0.07307542026977454,0.0,39242.75225463207,-0.00729050026609253,0.0345686048059102,0.2228391750606676,0.0,0.0,0.0,0.3012251259454777,TAKEOFF,-0.03337866968268397,0.04867189387440316,0.21389643631424032,0.07247309844344538,0.06785937441353455,0.013942570310622363,,,,,,,,,,,,,,,,0.030975279213351768,,,,,,,0.30193646155174636
1745262790.6400034,-0.034062778474586386,0.048934828417627425,0.21980803399413323,0.07501201821609721,0.07842778931167348,0.012427219890840826,-0.042569241455400815,0.024398864939750714,0.34864719793696486,0.13243881232073693,-0.0019113377004790445,-0.03004386371946764,0.03400234056944855,0.06137959515057311,-3.469446951953614e-18,40809.47227362239,-0.00729050026609253,0.0345686048059102,0.22886367757957718,0.0,0.0,0.0,0.3012251259454777,TAKEOFF,-0.034230899997488,0.04894034160009217,0.22127920058726314,0.0776493146367457,0.07155351688965984,0.01294010948591778,,,,,,,,,,,,,,,,0.03170406822604078,,,,,,,0.3172947074853826
1745262790.6595938,-0.03485817717323913,0.04916378068086871,0.2266090314131358,0.07816220712485858,0.07497459408805489,0.01580425187821375,-0.03871504375333918,0.01541609712739172,0.3127501923631302,0.13366488411152155,-0.0674803987685949,0.004848886096471727,0.027509538507061934,0.05762458822123895,0.0,42121.60880693274,-0.00729050026609253,0.0345686048059102,0.23488818009848672,0.0,0.0,0.0,0.3012251259454777,TAKEOFF,-0.03495930035047612,0.049216005760387906,0.22790193047551718,0.07702507954576931,0.08107927764973731,0.013424927570999806,,,,,,,,,,,,,,,,0.032272903058633305,,,,,,,0.33042809811113333
1745262790.6792555,-0.03539467578278251,0.049432082476425665,0.2326982002366527,0.07569713462169303,0.07547296607778742,0.012320264252176341,-0.01772694137714189,0.016591565033529338,0.27767294499740347,0.07232156017803514,-0.07460727543207515,-0.027212377404030784,0.02743171529660461,0.04383416768157811,1.734723475976807e-18,43457.25122943849,-0.00729050026609253,0.0345686048059102,0.2409126826173963,0.0,0.0,0.0,0.3012251259454777,TAKEOFF,-0.035518557314044456,0.04941247078454546,0.23383015388308195,0.07459376982212555,0.07522849799291118,0.013120477330984233,,,,,,,,,,,,,,,,0.032836646764223286,,,,,,,0.34406654115267005
1745262790.6993954,-0.035901398085766485,0.049606465820524276,0.2381612439369989,0.0726926091252192,0.0748009907066638,0.019703541071489656,-0.00687170813773301,0.031254486002412867,0.2509160698003275,-0.0026583801497101957,-0.11514841861776551,0.002813476251720329,0.03502916523766907,0.03697577564832844,0.0,44559.897745153525,-0.00729050026609253,0.0345686048059102,0.24693718513630583,0.0,0.0,0.0,0.3012251259454777,TAKEOFF,-0.035901398085766485,0.049606465820524276,0.2381612439369989,0.07113382193401882,0.0668687444271516,0.01642154959248367,,,,,,,,,,,,,,,,0.033492355573718116,,,,,,,0.35554309098809167
1745262790.7193258,-0.0363063473333133,0.04954977340505065,0.24302419272170797,0.06660337087758027,0.06589209057716229,0.012120935557782596,-0.026074885746391767,-0.005408560313840008,0.2256564862253183,-0.0749857915304509,-0.10486825825816787,-0.05310781340553599,0.013946212114150978,0.046791370768342944,-8.673617379884035e-19,45643.546083035326,-0.00729050026609253,0.0345686048059102,0.2529616876552154,0.0,0.0,0.0,0.3012251259454777,TAKEOFF,-0.0363063473333133,0.04954977340505065,0.24302419272170797,0.0654053201928203,0.06589758399978449,0.011458060136720363,,,,,,,,,,,,,,,,0.03413368716059988,,,,,,,0.3670244229305044
1745262790.7393286,-0.03626232336392133,0.04960925125854948,0.2465387928244607,0.06527946822980665,0.05640785586316468,0.016801590142707684,0.00261803274568601,-0.00524884464734943,0.20221912911297613,-0.029580182212154176,-0.014330962870506874,0.031261298637150964,0.01367258649491073,0.03018886938800769,-8.673617379884035e-19,46776.78810408527,-0.00729050026609253,0.0345686048059102,0.25898619017412494,0.0,0.0,0.0,0.3012251259454777,TAKEOFF,-0.036336191000492846,0.049695655372722,0.2475519708499356,0.06237309835507014,0.06072454781517526,0.011226143749622879,,,,,,,,,,,,,,,,0.034936016946778656,,,,,,,0.3792581120267347
1745262790.759587,-0.03635581590270041,0.04951914190194593,0.25084270626912575,0.063152053104685,0.05594424510536942,0.014424393904588571,-0.0006797077393429392,-0.007586882002685151,0.19522192815663225,-0.06882787361716357,-0.09258485131037741,-0.00643274400059876,0.012225840216371204,0.03168564567728738,0.0,47233.6723651567,-0.00729050026609253,0.0345686048059102,0.26501069269303446,0.0,0.0,0.0,0.3012251259454777,TAKEOFF,-0.0363057757039883,0.04943107841928779,0.25162956323355856,0.06422600101849711,0.04672408163296499,0.01665083246982274,,,,,,,,,,,,,,,,0.035623629402738353,,,,,,,0.38425899814046804
1745262790.7792454,-0.03616878383802276,0.049384444553582346,0.2548297803335433,0.06127026127102759,0.0430737567777571,0.014856053260142658,0.010465565155200945,-0.0012469435380334081,0.18357484338270158,-0.07994935611742839,-0.061529673173004326,0.006842206563086012,0.015136068727115898,0.025300574740244608,-1.734723475976807e-18,47894.09054020314,-0.00729050026609253,0.0345686048059102,0.2710351952119441,0.0,0.0,0.0,0.3012251259454777,TAKEOFF,-0.03616878383802276,0.049384444553582346,0.2548297803335433,0.06067275204542589,0.04021701098932373,0.016120953109069573,,,,,,,,,,,,,,,,0.036277814720164864,,,,,,,0.39156026603799876
1745262790.7993262,-0.035855434721418986,0.04908601501303818,0.2587355304209669,0.0587246563158434,0.04463067691514969,0.01227343673015233,0.01911158072960335,-0.015282226970766135,0.17955618862465977,-0.09206566961789835,-0.0625924588287317,-0.0230065710737914,0.0076230005199419025,0.020422914889001387,8.673617379884035e-19,48256.38843873888,-0.00729050026609253,0.0345686048059102,0.2770596977308536,0.0,0.0,0.0,0.3012251259454777,TAKEOFF,-0.035855434721418986,0.04908601501303818,0.2587355304209669,0.0584404139299669,0.04286715096592315,0.013085624566003522,,,,,,,,,,,,,,,,0.036911865127081285,,,,,,,0.39560308678600303
1745262790.8192415,-0.03553608216763485,0.048817690810584916,0.26277699706115876,0.05531215444339667,0.041423801230712744,0.01331077303138842,0.019111990943673118,-0.014970524144403273,0.1890492502128537,-0.12127068680577545,-0.06880607575372193,-0.00646429175444666,0.0075702119115648725,0.020237963802541392,4.336808689942018e-19,48148.62143245919,-0.00729050026609253,0.0345686048059102,0.28308420024976316,0.0,0.0,0.0,0.3012251259454777,TAKEOFF,-0.03553608216763485,0.048817690810584916,0.26277699706115876,0.05421558417577396,0.03960318180011382,0.01373209590565648,,,,,,,,,,,,,,,,0.03759297607623819,,,,,,,0.3943977157539914
1745262790.8399174,-0.035259450304583086,0.04855617685354208,0.2661468522471716,0.04873167607383144,0.04251834479882709,0.012838665993032553,0.019773745368682653,-0.010525112195612002,0.19930804422858744,-0.18807179757557405,-0.05502151265269087,-0.027137051597472053,0.009610863879243902,0.019731320796293916,8.673617379884035e-19,48092.54674911461,-0.00729050026609253,0.0345686048059102,0.28910870276867273,0.0,0.0,0.0,0.3012251259454777,TAKEOFF,-0.03512332302980038,0.048529237993368994,0.26696743035661324,0.050791720905972323,0.039195735330253334,0.014347540269634659,,,,,,,,,,,,,,,,0.03879640340824179,,,,,,,0.3937714690151235
1745262790.8592978,-0.03475032861140905,0.04823008693925428,0.27047417363818776,0.05048709173438934,0.03502927742973826,0.01835189512535491,0.03060123553934829,-0.015362008867547319,0.2008417473398421,-0.10235753013255343,-0.052158264535429995,0.04181040550357952,0.006833359002898661,0.013737976159695853,0.0,48219.799399280164,-0.00729050026609253,0.0345686048059102,0.29513320528758225,0.0,0.0,0.0,0.3012251259454777,TAKEOFF,-0.034639576093615294,0.048187716703429646,0.27134706222234756,0.05160557706568329,0.02503014485360205,0.022344682392762938,,,,,,,,,,,,,,,,0.03935411171300614,,,,,,,0.395193570280329
1745262790.8793201,-0.03423909510032029,0.047978594781818464,0.2751265935801545,0.048444024891985044,0.02748542094464263,0.01810901033347059,0.02344324304246651,-0.012877267126672112,0.2296312835985579,-0.1002274126020519,-0.07281801952754703,0.02275603974334974,0.008068418519071953,0.01733515367534033,0.0,47353.3802600941,-0.00729050026609253,0.0345686048059102,0.3011577078064918,0.0,0.0,0.0,0.3012251259454777,TAKEOFF,-0.03423909510032029,0.047978594781818464,0.2751265935801545,0.04835708720925667,0.025734284613697454,0.018294346348137237,,,,,,,,,,,,,,,,0.03979539549442809,,,,,,,0.385575999503314
1745262790.8993232,-0.03359460625487097,0.04752373599765255,0.28003756606683755,0.04821013225260827,0.02409092827124611,0.017795739287649482,0.03264816839018063,-0.019554750238682965,0.23645261834166875,-0.05492947138604323,-0.024939489015984,0.01726390659568074,0.004183476925391245,0.012006124054487533,-4.336808689942018e-19,47224.63854793116,-0.00729050026609253,0.0345686048059102,0.3071822103254014,0.0,0.0,0.0,0.3012251259454777,TAKEOFF,-0.03359460625487097,0.04752373599765255,0.28003756606683755,0.049519193294102336,0.025914129261038876,0.018191079381766048,,,,,,,,,,,,,,,,0.039957141138826834,,,,,,,0.38415972414815824
1745262790.919295,-0.032989747999550637,0.04724895065946245,0.2854509027155602,0.04735800616364238,0.021500465479243665,0.018754968070952803,0.031608922370634715,-0.009054582436286797,0.264547011992958,-0.05148734181768317,-0.032771482976960864,0.037449800035272846,0.009653957723292837,0.012318453038061561,0.0,46278.24813228964,-0.00729050026609253,0.0345686048059102,0.3132067128443109,0.0,0.0,0.0,0.3012251259454777,TAKEOFF,-0.032989747999550637,0.04724895065946245,0.2854509027155602,0.04802140110741258,0.021940850090578598,0.01987595802906366,,,,,,,,,,,,,,,,0.039895206490687736,,,,,,,0.3738468030577254
1745262790.9402082,-0.032470294175052455,0.046904761451536506,0.2898877575286927,0.04852757621731142,0.019859321656780476,0.017233646186952056,0.035758102441738236,-0.01717488714236531,0.2708220034588008,-0.03561971619059044,-0.025131305815898276,-0.01576833721762554,0.004984286065525671,0.00962552552317586,-4.336808689942018e-19,46221.572527637014,-0.00729050026609253,0.0345686048059102,0.3192312153632205,0.0,0.0,0.0,0.3012251259454777,TAKEOFF,-0.032440588669033946,0.04678863259412068,0.2912418682784029,0.04569451205261015,0.017847288240337957,0.01645912840425536,,,,,,,,,,,,,,,,0.04058622056523416,,,,,,,0.37323458308827895
1745262790.9594188,-0.03205435983048079,0.04648822134394965,0.2960681780399516,0.046559850204523634,0.016239440537195768,0.017372634199234387,0.01992571329136328,-0.01684885803057182,0.2972209726567844,-0.043451327899170514,-0.031060937196957593,-0.0021153167133601634,0.004884987533339527,0.0182444370013779,4.336808689942018e-19,45229.42241051755,-0.00729050026609253,0.0345686048059102,0.32525571788213004,0.0,0.0,0.0,0.3012251259454777,TAKEOFF,-0.031842186008433485,0.04645311286343536,0.29730006498388967,0.046001877997183284,0.018074983416136777,0.019105283050639583,,,,,,,,,,,,,,,,0.040090378907880135,,,,,,,0.3626123587141444
1745262790.9792445,-0.0314837112564404,0.0460340475186824,0.30252760252374417,0.04477932557558535,0.012742864214865217,0.018447233584448715,0.026218221093956412,-0.022302359981944908,0.3161955567252287,-0.04880657481561814,0.022181742768919877,0.0019644979867664593,0.001442321747801583,0.014539737419610343,1.0842021724855044e-19,44456.88037358445,-0.00729050026609253,0.0345686048059102,0.33128022040103955,0.0,0.0,0.0,0.3012251259454777,TAKEOFF,-0.0314837112564404,0.0460340475186824,0.30252760252374417,0.04514426134781185,0.010454894824576729,0.018038095683198294,,,,,,,,,,,,,,,,0.03928715909074002,,,,,,,0.3544622340235016
1745262790.9992669,-0.0310067745495236,0.045717230477299406,0.30938790575943753,0.04234327657775691,0.01108703250807915,0.017684132896481394,0.021998361740848574,-0.023969413817104046,0.3377729230212485,-0.10107218632085044,0.004375238885056782,-0.0019318185157762473,0.00018162731196476773,0.016907131972508482,-1.3552527156068805e-20,43532.87756249413,-0.00729050026609253,0.0345686048059102,0.3373047229199492,0.0,0.0,0.0,0.3012251259454777,TAKEOFF,-0.0310067745495236,0.045717230477299406,0.30938790575943753,0.040282063403370344,0.008971418041110351,0.01753878559804431,,,,,,,,,,,,,,,,0.038289714031592474,,,,,,,0.3448472583027803
1745262791.0192568,-0.030525561090873645,0.045418861142073906,0.3163339580664578,0.04264008945777418,0.010331037681856359,0.019809959730870564,0.019259662803029553,-0.01920047940193972,0.337420910446355,-0.03837497586157403,0.008392042927360895,0.049908196348018824,0.0026385060322088277,0.01805494486246717,-2.168404344971009e-19,43440.986324047204,-0.00729050026609253,0.0345686048059102,0.3433292254388587,0.0,0.0,0.0,0.3012251259454777,TAKEOFF,-0.030525561090873645,0.045418861142073906,0.3163339580664578,0.04353635986798881,0.011908217646577944,0.021285642921074564,,,,,,,,,,,,,,,,0.03723359470423384,,,,,,,0.34389875411060583
1745262791.0400863,-0.03014246473499309,0.04518931653916148,0.3222273439602876,0.04287814024875996,0.012107974960084695,0.018685191075657064,0.02343309557503876,-0.015140966669359915,0.3553774581618026,-0.026502282100167526,0.014989645494953706,0.0002876480664721092,0.004860619372728246,0.015567392958108606,-4.336808689942018e-19,42762.112835283886,-0.00729050026609253,0.0345686048059102,0.3493537279577682,0.0,0.0,0.0,0.3012251259454777,TAKEOFF,-0.030084320449116478,0.04510172170431171,0.32369475933194153,0.04159407679261595,0.010572588764444177,0.02084625098733098,,,,,,,,,,,,,,,,0.03702502540968048,,,,,,,0.33693340231767466
1745262791.0597458,-0.029852578236463177,0.044777129103516736,0.32964120049595247,0.039083570469948384,0.012497189455177945,0.019249491458766685,0.012166648045084416,-0.01745398472820925,0.35784807643892474,-0.081568354455517,0.0013724215429383568,0.03179923056766511,0.0030541476216381282,0.02214918423707357,-2.168404344971009e-19,42502.34930929878,-0.00729050026609253,0.0345686048059102,0.3553782304766778,0.0,0.0,0.0,0.3012251259454777,TAKEOFF,-0.029741188996480705,0.04474148930986256,0.331167025389104,0.035066372288518034,0.01642953973195159,0.01373160406641947,,,,,,,,,,,,,,,,0.035716327399449445,,,,,,,0.3342874477991517
1745262791.0794778,-0.02943619711104465,0.044569318105139935,0.337213222823568,0.038548522387681784,0.012389162727766386,0.018337724449804974,0.018604785509594608,-0.010510878653648761,0.3639911685934874,-0.06858298641560207,0.030082101497823244,0.003753569500101783,0.007080037862357296,0.018104948839942736,0.0,42075.374763728294,-0.00729050026609253,0.0345686048059102,0.36140273299558734,0.0,0.0,0.0,0.3012251259454777,TAKEOFF,-0.02945181264902338,0.044484749528531674,0.3387385326677253,0.03475279444333115,0.005034737997065928,0.021500413299882535,,,,,,,,,,,,,,,,0.034286711093427125,,,,,,,0.3299609622103045
1745262791.0993447,-0.029190070993660014,0.0444080392715183,0.34485221857642623,0.03579193563306042,0.011664340119897854,0.017791798352565565,0.008333545181128318,-0.0026821272177023504,0.37146791253536027,-0.09747216398514186,0.005942929381272022,-0.03274452991814899,0.011836565680634046,0.02446229950726342,0.0,41590.548851218984,-0.00729050026609253,0.0345686048059102,0.36742723551449685,0.0,0.0,0.0,0.3012251259454777,TAKEOFF,-0.029190070993660014,0.0444080392715183,0.34485221857642623,0.03463102551384024,0.013438159109515697,0.015908355019591335,,,,,,,,,,,,,,,,0.03295507636782083,,,,,,,0.32508187127385124
1745262791.119263,-0.028940528347976033,0.044104692359268234,0.35238331593363226,0.03666472806918359,0.00787476749622648,0.019210164288258925,0.011115605994848949,-0.01639304634118204,0.35935831990463996,-0.06040493324828216,0.03122895536556001,0.005820585599604458,0.0030299155671824804,0.022308354047807732,-2.168404344971009e-19,41873.747182969855,-0.00729050026609253,0.0345686048059102,0.3734517380334065,0.0,0.0,0.0,0.3012251259454777,TAKEOFF,-0.028940528347976033,0.044104692359268234,0.35238331593363226,0.03610274927658016,0.007226573087163209,0.019021819487915308,,,,,,,,,,,,,,,,0.03167868512968789,,,,,,,0.3279275655615167
1745262791.13973,-0.028829743877855325,0.04400696528275413,0.3585556584987711,0.03728154609345966,0.016367982329200535,0.015944387120687686,0.00878009979096481,-0.006109637520243944,0.3728097448779887,-0.052022200163729056,0.02510222366217038,-0.05401656678261468,0.009366814199957156,0.024067722995112728,-8.673617379884035e-19,41331.65458996241,-0.00729050026609253,0.0345686048059102,0.379476240552316,0.0,0.0,0.0,0.3012251259454777,TAKEOFF,-0.028743508383446803,0.043889229524112505,0.3599849274076669,0.039631556015850805,0.01692369609909328,0.018957885951598783,,,,,,,,,,,,,,,,0.03147526675529247,,,,,,,0.32249084331826733
1745262791.1592343,-0.028670982817738132,0.04366624080258928,0.36593341923799116,0.03986020104926732,0.019034030890690806,0.01739021371249793,0.006004632845224759,-0.016899760556874924,0.35085385956429793,0.024189626837652526,0.024170479948605696,-0.0030118827903823087,0.00223225117987461,0.02510502167705808,0.0,42029.303542304195,-0.00729050026609253,0.0345686048059102,0.3855007430712256,0.0,0.0,0.0,0.3012251259454777,TAKEOFF,-0.028666653655504096,0.043762840457766475,0.3674789945689873,0.04451162586837729,0.02084855406343599,0.021300104822591308,,,,,,,,,,,,,,,,0.03037716538559775,,,,,,,0.32949579487030733
1745262791.179305,-0.028527898980554217,0.04360562892227108,0.3734051538505119,0.04247245281672515,0.013913863109817758,0.022770454419849706,0.007882706406114189,-0.006720655374042929,0.3605543882717792,0.048669074294520324,0.019018533200992258,0.0602902980967591,0.008508474627696324,0.02427370943317797,8.673617379884035e-19,41468.93548397193,-0.00729050026609253,0.0345686048059102,0.39152524559013513,0.0,0.0,0.0,0.3012251259454777,TAKEOFF,-0.028442413092422573,0.04359081244869816,0.3748285499513715,0.04282975936235601,0.017763653968763404,0.02009871705764911,,,,,,,,,,,,,,,,0.029343357573547543,,,,,,,0.32386352249076994
1745262791.1995158,-0.028318564201169093,0.04358974490797834,0.38046987264483473,0.04107920593062337,0.016830118132322103,0.01970674355900304,0.00977146946733489,0.0010150603545524548,0.3356715284724119,0.008741624362035362,0.009207828547138065,0.026626582414692266,0.012945523573888005,0.022316737639789253,8.673617379884035e-19,42336.3878374786,-0.00729050026609253,0.0345686048059102,0.39754974810904464,0.0,0.0,0.0,0.3012251259454777,TAKEOFF,-0.028318564201169093,0.04358974490797834,0.38046987264483473,0.04102279525083262,0.015645855247434393,0.02101359310580993,,,,,,,,,,,,,,,,0.02855315372199242,,,,,,,0.3326024494045872
1745262791.219323,-0.028242140810217864,0.04349261240270476,0.3874918954362792,0.040136333341656755,0.015446285200985354,0.01978513138320376,0.004012658981873684,-0.007217900136740823,0.33401607374386094,-0.014300037216783405,-0.004905216199493296,-0.00014956458835045042,0.00791932956365838,0.025793630516373955,0.0,42276.15489845501,-0.00729050026609253,0.0345686048059102,0.40357425062795427,0.0,0.0,0.0,0.3012251259454777,TAKEOFF,-0.028242140810217864,0.04349261240270476,0.3874918954362792,0.0394600353534787,0.019078938746666694,0.019123615234051254,,,,,,,,,,,,,,,,0.027879227062260554,,,,,,,0.33199195773367196
1745262791.2394075,-0.028170579059191455,0.04356208674899861,0.39289663906605826,0.03952840517317402,0.016693598118671316,0.01701221546176449,0.004226251945855862,0.0038282497541630737,0.3267070430956426,0.007455623945626849,0.012515062393339844,-0.010150057652101556,0.014519988431271062,0.025356304226824777,0.0,42650.99633945882,-0.00729050026609253,0.0345686048059102,0.4095987531468638,0.0,0.0,0.0,0.3012251259454777,TAKEOFF,-0.028217837504776234,0.04346211820744045,0.394184756662688,0.03888731056647655,0.014668496493719905,0.020295182587856828,,,,,,,,,,,,,,,,0.02821029993876206,,,,,,,0.3358002793490133
1745262791.2592578,-0.02825174378723927,0.043514146355873716,0.39947940498954454,0.03927743569205708,0.01616469188883491,0.018935025990901973,-0.006817226242167995,0.003468954224297663,0.31122257486296445,-0.004624313402176158,0.019062586769840514,0.017313342516023126,0.014045021263539834,0.03156944446129373,8.673617379884035e-19,43192.764776156386,-0.00729050026609253,0.0345686048059102,0.4156232556657733,0.0,0.0,0.0,0.3012251259454777,TAKEOFF,-0.02809904030537945,0.04348562763391412,0.4007509446796397,0.04046701956718044,0.02144665188080973,0.016788993550441722,,,,,,,,,,,,,,,,0.027928844555965997,,,,,,,0.34134342579966986
1745262791.279288,-0.028192985204329685,0.0435037346631874,0.4059170618783638,0.04088733591523388,0.022611265525263994,0.016263258422633684,0.002039834309078573,0.001627656926300226,0.30885459842043883,0.010716123203844198,0.04761942630168095,-0.03969951817004133,0.012963190628837265,0.02634219018170514,0.0,43231.81677621805,-0.00729050026609253,0.0345686048059102,0.4216477581846829,0.0,0.0,0.0,0.3012251259454777,TAKEOFF,-0.028192985204329685,0.0435037346631874,0.4059170618783638,0.04098384395569356,0.026754110891261652,0.015168890384623181,,,,,,,,,,,,,,,,0.02764426212510075,,,,,,,0.3417447914580276
1745262791.2992637,-0.02819644829769747,0.043469930145238346,0.41208547260084893,0.042112170951603634,0.021937800656620383,0.016899471472267728,-0.005288460606549732,-0.004014443202146322,0.2918037109356533,0.03472893972855151,0.016732120190636957,-0.013129319798028947,0.00946368638059045,0.030107605887859323,8.673617379884035e-19,43872.73426250684,-0.00729050026609253,0.0345686048059102,0.42767226070359243,0.0,0.0,0.0,0.3012251259454777,TAKEOFF,-0.02819644829769747,0.043469930145238346,0.41208547260084893,0.04273902437756946,0.021429331877419557,0.01671089069018124,,,,,,,,,,,,,,,,0.027554313986317244,,,,,,,0.3483672545418889
1745262791.3193278,-0.02805844728051075,0.04353792770868477,0.4181607080932835,0.04250654761198368,0.023244662585008125,0.014728229056529655,0.009380094981978995,-0.0014166031573842836,0.2876568959715394,0.013831432062406092,0.01788254281402675,-0.05549553513266234,0.011007803995907266,0.021494311488636786,0.0,44022.740514452904,-0.00729050026609253,0.0345686048059102,0.43369676322250195,0.0,0.0,0.0,0.3012251259454777,TAKEOFF,-0.02805844728051075,0.04353792770868477,0.4181607080932835,0.042059132347893956,0.024329181446249567,0.01330973207584371,,,,,,,,,,,,,,,,0.027443130023851767,,,,,,,0.34992697115893
1745262791.3411272,-0.028111043495121085,0.04363048010276273,0.4229238642738759,0.041491963214480516,0.020514906988210506,0.013333153673946257,0.004107633360385261,0.003640645737328866,0.28211830140645466,-0.030486335701508546,-0.024661300665394452,-0.0732475587603247,0.013877876684550058,0.024359058019682855,8.673617379884035e-19,44394.589853991485,-0.00729050026609253,0.0345686048059102,0.43972126574141157,0.0,0.0,0.0,0.3012251259454777,TAKEOFF,-0.028139980915987094,0.043711165421314147,0.42409200299542693,0.04110791118140723,0.019597417290725713,0.013077355168146952,,,,,,,,,,,,,,,,0.02824473933866486,,,,,,,0.35380955897626326
1745262791.3593678,-0.02806515295052092,0.04383307313419197,0.42878313260038986,0.042778083758699216,0.0200432700597711,0.013116662839785761,0.006965527635526393,0.014842219726534985,0.2809701953245398,0.025277902582960463,-0.023552180784675292,-0.05106155244137224,0.020423806301244345,0.02270506717272558,-1.734723475976807e-18,44466.72595767801,-0.00729050026609253,0.0345686048059102,0.4457457682603211,0.0,0.0,0.0,0.3012251259454777,TAKEOFF,-0.028064929951024064,0.043749008546317594,0.4298669233436843,0.041491321387727126,0.02064686969018442,0.016236046335628276,,,,,,,,,,,,,,,,0.028375122486007598,,,,,,,0.35456545561017944
1745262791.3792584,-0.028121249005131275,0.043972980737760584,0.4344289990300199,0.04332378033377398,0.02396923788160705,0.01819738297555357,-0.0035698803028634137,0.015108548270115308,0.26609584465097746,0.03412382886533837,-0.01724578768621706,0.04985816309303946,0.02038801855851443,0.028252851991468875,0.0,45082.40246513118,-0.00729050026609253,0.0345686048059102,0.4517702707792306,0.0,0.0,0.0,0.3012251259454777,TAKEOFF,-0.028121249005131275,0.043972980737760584,0.4344289990300199,0.044052594825119036,0.024016342759058194,0.01944976179887192,,,,,,,,,,,,,,,,0.02868940720155269,,,,,,,0.3610533327903864
1745262791.3993685,-0.028029294230169352,0.04391183557344976,0.44020073857282255,0.04451452583800549,0.02242444054914462,0.017473681386114107,0.003609094234006856,-0.0018166299781124497,0.27836086385405967,0.047989217078774384,0.018420438678098044,0.019756539425379357,0.011110564865250517,0.024548357720854064,0.0,44631.00808702649,-0.00729050026609253,0.0345686048059102,0.4577947732981402,0.0,0.0,0.0,0.3012251259454777,TAKEOFF,-0.028029294230169352,0.04391183557344976,0.44020073857282255,0.04549691899639271,0.023529758977364746,0.017673289758020645,,,,,,,,,,,,,,,,0.028756626961026068,,,,,,,0.35629023760646406
1745262791.4197714,-0.02804910774182441,0.04406037942971618,0.4459471595027691,0.04583840625751789,0.01808796841805088,0.01724369607793356,-0.003991235404279482,0.006164033980021842,0.2862170447989002,0.04050288387102922,0.008150214055713298,-0.005019728413791063,0.015906064079341586,0.029115960701617816,1.734723475976807e-18,44374.5101006736,-0.00729050026609253,0.0345686048059102,0.46381927581704974,0.0,0.0,0.0,0.3012251259454777,TAKEOFF,-0.02804910774182441,0.04406037942971618,0.4459471595027691,0.04565351370721931,0.017333537406815498,0.016283820138675863,,,,,,,,,,,,,,,,0.028990103680252944,,,,,,,0.35359930527121114
1745262791.440206,-0.027981394509274754,0.04404653670884516,0.4503272883377453,0.05021921485206446,0.023179854345337418,0.018374750619064094,0.006262570507456347,-0.003265847101319418,0.2683145940959181,0.09037913586601498,0.023740004856403013,0.03433946615989698,0.01031476985764566,0.02271127374233539,-8.673617379884035e-19,45232.417831057886,-0.00729050026609253,0.0345686048059102,0.46984377833595936,0.0,0.0,0.0,0.3012251259454777,TAKEOFF,-0.027997281493961742,0.044100046544249295,0.4514097248528629,0.05101085558858026,0.019537388743251994,0.01664189627934501,,,,,,,,,,,,,,,,0.029980621734540667,,,,,,,0.36264416229623314
1745262791.4598522,-0.027964485178066024,0.04419794324000271,0.45601994900905063,0.050122075474982035,0.020160492787011357,0.01657211761383438,0.004332083164516633,0.00605268266314287,0.2770772551577386,0.08630656941763573,-0.006489762285428657,0.008824915130226024,0.015777628885474175,0.024014588356530364,0.0,44952.85278249757,-0.00729050026609253,0.0345686048059102,0.4758682808548689,0.0,0.0,0.0,0.3012251259454777,TAKEOFF,-0.0279618850842748,0.04418886031223539,0.4571863471310898,0.04952738139226799,0.022413333700596977,0.012435415871984276,,,,,,,,,,,,,,,,0.030233988950856643,,,,,,,0.35968270791231427
1745262791.4798338,-0.028000762024561275,0.0442728387763665,0.46171234783085197,0.04841073558707912,0.026022314919075615,0.011407032929633533,0.00014102746532708584,0.007269618002179117,0.2686388407619147,0.04015797285621626,-0.008581917528560653,-0.06254313272306711,0.01639064118211586,0.02616339354658459,0.0,45317.185795573605,-0.00729050026609253,0.0345686048059102,0.4818927833737784,0.0,0.0,0.0,0.3012251259454777,TAKEOFF,-0.02792532609344418,0.04429278507010222,0.4629071557092077,0.047058556478093046,0.028034904971938723,0.011244473428801532,,,,,,,,,,,,,,,,0.03050142747085551,,,,,,,0.36354483604575477
1745262791.4992456,-0.02780328971835451,0.044414808068284406,0.46741852652195115,0.0473592370538456,0.02441429655781681,0.013707666639302068,0.0073262833567638965,0.008496644851668431,0.27315088188121694,0.022989679828793467,0.001000303945295858,-0.0012959756859320098,0.017314715857131874,0.022136764273591684,-1.734723475976807e-18,45185.83917884328,-0.00729050026609253,0.0345686048059102,0.487917285892688,0.0,0.0,0.0,0.3012251259454777,TAKEOFF,-0.02780328971835451,0.044414808068284406,0.46741852652195115,0.04808633271375481,0.02451128619802767,0.014551830137274032,,,,,,,,,,,,,,,,0.030625502208718,,,,,,,0.3621497972774627
1745262791.5197802,-0.027816521312690398,0.044522842680281255,0.4721268727547382,0.04626934742208633,0.022999783307911466,0.012602262109700346,0.0018495485856232343,0.00877018469282358,0.27907564145080316,0.018147694829500443,-0.012875840438180856,-0.0004259360037800024,0.017646728357478308,0.025279160838735715,1.734723475976807e-18,45123.75122497102,-0.00729050026609253,0.0345686048059102,0.4939417884115975,0.0,0.0,0.0,0.3012251259454777,TAKEOFF,-0.027693479428199372,0.04457559825356681,0.47321671879764116,0.04869036010989208,0.025113935367582406,0.011264735507281265,,,,,,,,,,,,,,,,0.03156414004500722,,,,,,,0.3614914180702383
1745262791.5399523,-0.027779341508235963,0.044658699093717315,0.47802745566706617,0.04690940618077634,0.023887900459622042,0.009539996961114518,-0.0028901208170264625,0.00905721303973359,0.28725061544651714,-0.0034667542532673535,-0.004888230203663828,-0.07586765220866898,0.018138874661640058,0.02815546026384319,0.0,44833.6821361331,-0.00729050026609253,0.0345686048059102,0.49996629093050704,0.0,0.0,0.0,0.3012251259454777,TAKEOFF,-0.02765458485011913,0.044614403977081524,0.47916895653076,0.04922386773515245,0.02348942014509321,0.009969956180005115,,,,,,,,,,,,,,,,0.03166883501013247,,,,,,,0.358424475682392
1745262791.559497,-0.02761973664341651,0.044689420836098344,0.4840296985529384,0.04713140431017116,0.018278697724467198,0.013057289433399165,0.00436499174000288,0.00025495774736905043,0.2891080149673214,-0.0026076788963888165,0.011739465242238806,0.01424257310473196,0.013316011369207195,0.024036935682766547,-8.673617379884035e-19,44756.189527454524,-0.00729050026609253,0.0345686048059102,0.5059907934494167,0.0,0.0,0.0,0.3012251259454777,TAKEOFF,-0.027612026544471955,0.044734614902142436,0.4852529458393373,0.048197012413260173,0.010676428049265855,0.013318028834634472,,,,,,,,,,,,,,,,0.03159111358996622,,,,,,,0.35760761128831225
1745262791.579474,-0.027403711418182528,0.04471142080868422,0.4901590196523827,0.05028870233181852,0.022110457084217525,0.01281424767214723,0.014441040022198107,-0.006564525758440342,0.29585584956681665,0.035091446279839636,2.6809461737414742e-05,-0.018169628852280278,0.00963190076253758,0.01836551651133633,8.673617379884035e-19,44475.203155866766,-0.00729050026609253,0.0345686048059102,0.5120152959683262,0.0,0.0,0.0,0.3012251259454777,TAKEOFF,-0.027403711418182528,0.04471142080868422,0.4901590196523827,0.04990036579840316,0.022722319830699833,0.011681437310204075,,,,,,,,,,,,,,,,0.031386538415594016,,,,,,,0.35465434418763003
1745262791.5995166,-0.027316114835257078,0.04485985305640017,0.49635692892247263,0.051997430602478446,0.021446988859847766,0.011910023413306249,0.014239626627481202,0.010469419523802032,0.2934420203871716,0.07613128818785753,-0.0296562332912078,0.010644856036678465,0.0193840761618193,0.018394162909326717,-1.734723475976807e-18,44563.36410445757,-0.00729050026609253,0.0345686048059102,0.5180397984872357,0.0,0.0,0.0,0.3012251259454777,TAKEOFF,-0.027316114835257078,0.04485985305640017,0.49635692892247263,0.05363097487450876,0.024171563739802573,0.013258724462318641,,,,,,,,,,,,,,,,0.03125830868726708,,,,,,,0.35557949148433105
1745262791.6194625,-0.027212323051611132,0.04488956071215451,0.502783993541639,0.05245183946198597,0.02280309630154799,0.012223684408258786,0.0019988324527289384,0.007602333388551444,0.30785822442021576,0.03531691764113096,-0.03175238319360166,-0.002921066533531002,0.01815357832136655,0.02566397178511326,0.0,43968.468656204466,-0.00729050026609253,0.0345686048059102,0.5240643010061453,0.0,0.0,0.0,0.3012251259454777,TAKEOFF,-0.027212323051611132,0.04488956071215451,0.502783993541639,0.051788814472001836,0.021845007872968378,0.012279787277904089,,,,,,,,,,,,,,,,0.030923334873525016,,,,,,,0.34936223860258436
1745262791.6397145,-0.027075611208284465,0.044902400750195054,0.5079248745029928,0.05029075108835455,0.023999098585209967,0.011440959816519028,0.009379192742939461,0.0030972363509916413,0.31319289342299905,0.02950056801270929,0.00246814661399966,-0.007466967488664484,0.01566491194182435,0.021405096007246494,0.0,43866.33088289656,-0.00729050026609253,0.0345686048059102,0.5300888035250548,0.0,0.0,0.0,0.3012251259454777,TAKEOFF,-0.02709486649015285,0.04486480197249841,0.5092540185057247,0.0514044514351387,0.01856517641627902,0.009906251281686452,,,,,,,,,,,,,,,,0.03145596451085172,,,,,,,0.3483007572674651
1745262791.6592875,-0.026867692745257233,0.04489202104536525,0.5144422738104222,0.049103215724505815,0.019164437367960037,0.012211189193620348,0.00913595759206947,-0.003690485430290779,0.3142840087343925,-0.02550782637083235,0.002951243574506528,0.007981643018966735,0.011821667346659034,0.021426740199819827,0.0,43762.14481972702,-0.00729050026609253,0.0345686048059102,0.5361133060439645,0.0,0.0,0.0,0.3012251259454777,TAKEOFF,-0.02690620487467886,0.04485184541888885,0.5158001123106757,0.04867871053957604,0.017980366800019448,0.010319901574375645,,,,,,,,,,,,,,,,0.03097536160057757,,,,,,,0.34721976555227935
1745262791.6793702,-0.02667011322892212,0.04494337948578298,0.5211213057488528,0.05052356247194258,0.022178080234544203,0.012219368706778474,0.02011700012280836,0.0053155277558399475,0.31840965574892244,0.040889553500160984,-0.0012999213584241776,0.02472347006255941,0.01721632893557043,0.015039742848643511,0.0,43528.18433826194,-0.00729050026609253,0.0345686048059102,0.542137808562874,0.0,0.0,0.0,0.3012251259454777,TAKEOFF,-0.02670692372890365,0.04485610364819578,0.5224355895524444,0.047215738223217826,0.02475720116370119,0.011072153949163603,,,,,,,,,,,,,,,,0.030412147881709373,,,,,,,0.34479878145316634
1745262791.6992705,-0.02647733364921815,0.04484224236532084,0.5277603423002966,0.049319127210717816,0.02017399074593354,0.011545633143598496,0.014779216379714778,-0.002915872625840135,0.31845191149732655,-0.015284577189490452,-0.03230373843294819,-0.025306365738081798,0.012384239302570337,0.018006963982653664,0.0,43449.99353548626,-0.00729050026609253,0.0345686048059102,0.5481623110817835,0.0,0.0,0.0,0.3012251259454777,TAKEOFF,-0.02647733364921815,0.04484224236532084,0.5277603423002966,0.04863661473003924,0.017795476075210506,0.010573390611555144,,,,,,,,,,,,,,,,0.02983156942124775,,,,,,,0.34399166625259586
1745262791.7193162,-0.026224716061146063,0.04480551658714514,0.5344352145935538,0.04896309626361405,0.024088854327141897,0.008142062693954032,0.008233457557558749,0.004557921231257766,0.31465196935682677,-0.007002585305739647,-0.02478361582727822,-0.03971089179217327,0.01667858888554517,0.021524000586757183,0.0,43530.051682748555,-0.00729050026609253,0.0345686048059102,0.5541868136006931,0.0,0.0,0.0,0.3012251259454777,TAKEOFF,-0.026224716061146063,0.04480551658714514,0.5344352145935538,0.04910162339747602,0.023987595595255977,0.008514756787437544,,,,,,,,,,,,,,,,0.029213431053699727,,,,,,,0.34481806903857
1745262791.7407572,-0.02604792877946573,0.04472767535391264,0.5399504056292084,0.05179618649838565,0.02366034050635402,0.011838335311858735,0.00565303332903261,0.00029960233778501995,0.33522470116790887,0.012115254332505411,-0.0040456231393753254,-0.0250983957213357,0.014466430321863994,0.023382976444406678,8.673617379884035e-19,42787.53963108972,-0.00729050026609253,0.0345686048059102,0.5602113161196026,0.0,0.0,0.0,0.3012251259454777,TAKEOFF,-0.02604684400795234,0.04471787016014555,0.5413368226518132,0.04687877556887827,0.022644116145448992,0.009234494628450713,,,,,,,,,,,,,,,,0.02942027077940249,,,,,,,0.33719296705098917
1745262791.7595382,-0.02578628335858754,0.04462420667471277,0.5466804600877219,0.047202855870464924,0.01969665922489189,0.011358461880970163,0.008744985222896871,-0.00502614290344999,0.324956240242951,-0.05033152854504405,0.011533736290190702,-0.02061936363463154,0.011109313473773738,0.021093461914056588,-8.673617379884035e-19,43102.79621608062,-0.00729050026609253,0.0345686048059102,0.5662358186385122,0.0,0.0,0.0,0.3012251259454777,TAKEOFF,-0.0257378754343756,0.04465252192552113,0.548055713595119,0.049766392004070174,0.025540983305509822,0.010222217407651463,,,,,,,,,,,,,,,,0.028733624365862038,,,,,,,0.34041968249574395
1745262791.7792592,-0.02538087379991924,0.0446523269738651,0.5533395642529809,0.04922941804161162,0.019765432268538087,0.01209620650085237,0.02318284556696689,0.0010683986953800373,0.3153139591865649,0.00508821279955634,0.005940533498682268,0.01795787965979337,0.014618352770708842,0.012084200519169475,0.0,43399.57941483163,-0.00729050026609253,0.0345686048059102,0.5722603211574218,0.0,0.0,0.0,0.3012251259454777,TAKEOFF,-0.025366812388860696,0.04468094576728501,0.5547588389068461,0.04724109202318598,0.014662723312599397,0.011544655855714155,,,,,,,,,,,,,,,,0.028052417171980537,,,,,,,0.3434717981871092
1745262791.7992837,-0.02510371393276202,0.044456662758805436,0.5601564640148701,0.05027442663480646,0.01719485519781499,0.014364403248950478,0.019168249425821432,-0.01411541623248338,0.32185401901741933,0.03204628689423992,-0.04094851212482684,0.047844725672485496,0.005641821125131619,0.014300047233327673,4.336808689942018e-19,43036.46034117249,-0.00729050026609253,0.0345686048059102,0.5782848236763313,0.0,0.0,0.0,0.3012251259454777,TAKEOFF,-0.02510371393276202,0.044456662758805436,0.5601564640148701,0.05145905067667063,0.01817738246907136,0.015386714055828392,,,,,,,,,,,,,,,,0.027271261342840913,,,,,,,0.3397394124720245
1745262791.8192282,-0.024704449903087993,0.04448445444203478,0.5667759188085639,0.049163092697212946,0.020848603778963488,0.014196036673960034,0.02126020947882074,0.0014125664298329597,0.32098720445801854,-0.03149467275447425,-0.04097352601735975,0.006783125073864479,0.014852348774839926,0.01266441596149881,-8.673617379884035e-19,43014.24497303119,-0.00729050026609253,0.0345686048059102,0.5843093261952409,0.0,0.0,0.0,0.3012251259454777,TAKEOFF,-0.024704449903087993,0.04448445444203478,0.5667759188085639,0.04726809351361127,0.019608328322997925,0.013023530883824243,,,,,,,,,,,,,,,,0.026626867832195825,,,,,,,0.3395117518094102
1745262791.8396764,-0.02447635058374066,0.04425560349071589,0.5721476537235535,0.049886247847828316,0.02045322960293448,0.013473174506387037,0.01862216691631098,-0.014040938032923394,0.32208468559451603,0.016707725801137,-0.03916378224361042,0.021998160172289078,0.0055065109769153985,0.013984427543090261,0.0,43037.60407357352,-0.00729050026609253,0.0345686048059102,0.5903338287141504,0.0,0.0,0.0,0.3012251259454777,TAKEOFF,-0.02439705586837403,0.04426215433924027,0.5734417263112427,0.051915642996457574,0.022630113342500088,0.01396591264664121,,,,,,,,,,,,,,,,0.026831480679393133,,,,,,,0.3397511354394737
1745262791.8595314,-0.024168720398909074,0.044234160344571824,0.5787947748672192,0.048521922381212834,0.0222765750270719,0.014788373186556607,0.016678321457963916,0.002082777628070731,0.3238010761200756,-0.014467086913853658,-0.024647729459710752,0.02526967589912504,0.015055799071361425,0.014877131541475075,0.0,42913.82282532043,-0.00729050026609253,0.0345686048059102,0.5963583312330599,0.0,0.0,0.0,0.3012251259454777,TAKEOFF,-0.02403715599129155,0.044119630730120284,0.5800592317934982,0.04623818483134039,0.02296880367294197,0.013417828812901447,,,,,,,,,,,,,,,,0.0262064074405255,,,,,,,0.33848361334944377
1745262791.8794641,-0.023850606319804783,0.04397655775868859,0.5853508623820325,0.04484280260271492,0.019749551817942985,0.011543557119225147,0.01397259210113275,-0.011865775574785136,0.31042794577966504,-0.04922316837011192,-0.010357064676184115,-0.018486060090124056,0.006451889772348049,0.015928312670588474,-8.673617379884035e-19,43363.89521101482,-0.00729050026609253,0.0345686048059102,0.6023828337519695,0.0,0.0,0.0,0.3012251259454777,TAKEOFF,-0.023850606319804783,0.04397655775868859,0.5853508623820325,0.04515006680439115,0.017361572847516177,0.011798907674201357,,,,,,,,,,,,,,,,0.025550630912332565,,,,,,,0.3431040727916051
1745262791.8993068,-0.023379383738854433,0.04393617534169437,0.5917683244132389,0.04624507607643774,0.02266518368240717,0.013070032320263623,0.02318721221744321,-0.00291782747039792,0.30941531079939744,-0.021753051710668134,3.94408052183993e-06,0.007486611969627374,0.011646849196873957,0.010060672896618161,0.0,43358.25054684439,-0.00729050026609253,0.0345686048059102,0.6084073362708791,0.0,0.0,0.0,0.3012251259454777,TAKEOFF,-0.023379383738854433,0.04393617534169437,0.5917683244132389,0.046395497550135445,0.021026775022080578,0.013401596070292648,,,,,,,,,,,,,,,,0.02496918630515806,,,,,,,0.3430459234169599
1745262791.9193816,-0.022981384764583283,0.04377267050183391,0.5981738277917206,0.04509508789215944,0.020004137889520157,0.014337322962263825,0.024243935401158528,-0.0034249911851461684,0.30145538599129973,-0.02236862654907362,-0.025894111070687235,0.030353245324730743,0.011099581516099532,0.008955978117445971,-8.673617379884035e-19,43622.735256018575,-0.00729050026609253,0.0345686048059102,0.6144318387897886,0.0,0.0,0.0,0.3012251259454777,TAKEOFF,-0.022981384764583283,0.04377267050183391,0.5981738277917206,0.045722469857106034,0.023447409943704176,0.015041872599744155,,,,,,,,,,,,,,,,0.024397573717342413,,,,,,,0.34577610085338123
1745262791.9394684,-0.022789260768044065,0.043672741113423105,0.6033639399275548,0.04379362232297672,0.021392491332223266,0.014715047451082238,0.01252007310995696,-0.00907693949246129,0.31038973743868437,-0.03809232500447565,-0.03786887129593019,0.04420922472304341,0.007799939769553071,0.01566909793298743,0.0,43380.43422520978,-0.00729050026609253,0.0345686048059102,0.6204563413086982,0.0,0.0,0.0,0.3012251259454777,TAKEOFF,-0.02259030145867707,0.04364063223121626,0.6046060505397153,0.04769040461058304,0.019424379483100718,0.012664525333655573,,,,,,,,,,,,,,,,0.02480417424500847,,,,,,,0.34327448160417806
