TIME,POS_X,POS_Y,POS_Z,ROLL,PITCH,YAW,VEL_X,VEL_Y,VEL_Z,ROLL_RATE,PITCH_RATE,YAW_RATE,CMD_ROLL,CMD_PITCH,CMD_YAW,CMD_THRUST,DES_POS_X,DES_POS_Y,DES_POS_Z,DES_YAW,DES_VEL_X,DES_VEL_Y,DES_VEL_Z,STATUS,VICON_POS_X,VICON_POS_Y,VICON_POS_Z,VICON_ROLL,VICON_PITCH,VICON_YAW,ACC_X,ACC_Y,ACC_Z,ROLL_ACC,PITCH_ACC,YAW_ACC,PITCH_PRED,PITCH_ACT,OBS_POS_X,OBS_POS_Z,OBS_VEL_X,OBS_VEL_Z,OBS_PITCH,OBS_PITCH_RATE,INFERENCE_TIME,POS_ERROR,VICON_VEL_X,VICON_VEL_Y,VICON_VEL_Z,VICON_ROLL_RATE,VICON_PITCH_RATE,VICON_YAW_RATE,CMD_FORCE
1745262832.530681,-0.009772008984530173,-0.00976278142013376,0.05391989756920921,0.05066282300236724,0.016272151851899216,0.04393427799716591,-0.003464601278884455,-0.001621205336541221,0.0010949806366591151,0.02806840054113947,-0.024250640244931797,0.033531706033480935,-0.0007311259095197022,0.0015624532050908524,-5.421010862427522e-20,52311.60274852095,-0.009772008984530173,-0.00976278142013376,0.05391989756920921,0.0,0.0,0.0,0.3012993956785958,TAKEOFF,-0.00973248793720504,-0.00974066999507093,0.053892329385723664,0.049385218927900425,0.01590611536297776,0.042468659377638836,,,,,,,,,,,,,,,,0.0,,,,,,,0.4428507220162708
1745262832.5472293,-0.009734284861600542,-0.009802911413024935,0.053905685533831287,0.048624658524020904,0.014503512909751727,0.04179964200220281,6.607270618733043e-05,-0.008355156837309712,0.0003010733542475356,-0.02099814615905348,-0.016362097388933648,0.015540536649349977,-0.003737885529636783,-6.279243085605124e-05,-2.168404344971009e-19,52952.83349466045,-0.009772008984530173,-0.00976278142013376,0.059945885482781125,0.0,0.0,0.0,0.3012993956785958,TAKEOFF,-0.009734284861600542,-0.009802911413024935,0.053905685533831287,0.0481693445963719,0.013910324491909758,0.04330604593581532,,,,,,,,,,,,,,,,0.0060404510551012565,,,,,,,0.4506933480199613
1745262832.5669084,-0.009790676188967107,-0.009723500478007274,0.05392584945263136,0.051462238567534714,0.017838660318662162,0.042928530720427904,-0.0036659792114575223,0.0015665412718618551,0.0005974414509487445,0.03966147422193618,-0.024824502551785366,0.03488157755333052,0.0007171992092206144,0.0016144577746577404,-1.0842021724855044e-19,53550.692058340406,-0.009772008984530173,-0.00976278142013376,0.06597187339635305,0.0,0.0,0.0,0.3012993956785958,TAKEOFF,-0.009790676188967107,-0.009723500478007274,0.05392584945263136,0.052511459803144145,0.01642900051330731,0.04439473328216747,,,,,,,,,,,,,,,,0.012046102453061407,,,,,,,0.45810763597887727
1745262832.586879,-0.00981673677687761,-0.009754559393445097,0.053963618726256525,0.05124948060857406,0.01898077906025797,0.04326433123447014,-0.0037431824883668308,0.0008828742088659138,0.00435158430003595,0.03863034984860099,-0.026334966185649164,0.02179281960725854,0.00038702076730497923,0.001649358275475743,0.0,54027.130471999655,-0.009772008984530173,-0.00976278142013376,0.07199786130992496,0.0,0.0,0.0,0.3012993956785958,TAKEOFF,-0.00981673677687761,-0.009754559393445097,0.053963618726256525,0.052705820353512164,0.018798798137722537,0.04355955349520327,,,,,,,,,,,,,,,,0.01803429992385984,,,,,,,0.4640895021835714
1745262832.6071625,-0.009802986807711373,-0.009653270660413394,0.05390282628338029,0.0495952444795138,0.01925595955988815,0.04379105757619226,-0.0050333490987640225,0.016485301411712863,-0.0034833132463184843,0.019519624034485025,-0.025910209957071856,0.02806432088503224,0.007025770005710377,0.0021430876070194227,0.0,54885.33189255897,-0.009772008984530173,-0.00976278142013376,0.07802384922349687,0.0,0.0,0.0,0.3012993956785958,TAKEOFF,-0.009840957579883432,-0.009723335947919205,0.05403528034312601,0.05192084212801733,0.02055318722105628,0.04272742891814024,,,,,,,,,,,,,,,,0.024121291422924553,,,,,,,0.4750363022925636
1745262832.6278749,-0.009845286612155595,-0.009657537938994697,0.05401622536838793,0.05124862807107085,0.02354663494449635,0.04200666205726025,-0.005540131996890968,0.010179649904531265,0.006293436606060116,0.027779108135429165,-0.02837678904439992,-0.007161582974346006,0.004338384207115952,0.002374472241075898,-4.336808689942018e-19,55145.992977034286,-0.009772008984530173,-0.00976278142013376,0.08404983713706879,0.0,0.0,0.0,0.3012993956785958,TAKEOFF,-0.009779131934436273,-0.009815132009041804,0.05398954674479471,0.048975955319125214,0.01902888658164188,0.04371933135025826,,,,,,,,,,,,,,,,0.030033885557364665,,,,,,,0.478406603065027
1745262832.6468408,-0.009847326641512584,-0.00981778232525953,0.05406771798615255,0.05157673969651039,0.02015353779717437,0.04357176269739113,-0.005217033352163017,-0.0067778807671786566,0.00526444219824849,0.015670612205161295,-0.026655372499236097,0.031071649806502018,-0.002828636592093957,0.0022050150177070904,-2.168404344971009e-19,55739.15472171032,-0.009772008984530173,-0.00976278142013376,0.09007582505064071,0.0,0.0,0.0,0.3012993956785958,TAKEOFF,-0.009847326641512584,-0.00981778232525953,0.05406771798615255,0.05137799340172585,0.019978166569770243,0.04451898839776143,,,,,,,,,,,,,,,,0.03600822784054584,,,,,,,0.48615836684275626
1745262832.6668894,-0.00988221345335394,-0.009733800538431979,0.05414542996834031,0.05543663851438991,0.022458384313962552,0.04244088842876926,-0.00018849363799748912,0.00367933369538724,0.0008224165381788082,0.040337601110626,-0.027074021668854257,-0.012931628130032097,0.0015067469523119994,0.00016544764907733267,1.0842021724855044e-19,56431.74438530039,-0.009772008984530173,-0.00976278142013376,0.09610181296421262,0.0,0.0,0.0,0.3012993956785958,TAKEOFF,-0.00988221345335394,-0.009733800538431979,0.05414542996834031,0.05439914380777414,0.023184484544855256,0.04147476724783725,,,,,,,,,,,,,,,,0.041956537738626336,,,,,,,0.4953600019202285
1745262832.687511,-0.009819696599081157,-0.009808955007399435,0.05416258999080405,0.05845999795987037,0.023414953605631554,0.04380418020938219,0.01165007663435672,-0.004872803929215359,0.00485943878203658,0.10356115069678352,-0.030516976136453853,0.022012250644373066,-0.0019772609008486264,-0.004601338838844837,2.168404344971009e-19,56852.781421721025,-0.009772008984530173,-0.00976278142013376,0.10212780087778453,0.0,0.0,0.0,0.3012993956785958,TAKEOFF,-0.009923196938536676,-0.0097750876314607,0.05425546321997879,0.0553663542807076,0.025542530864211578,0.042050479546157774,,,,,,,,,,,,,,,,0.04796525681721358,,,,,,,0.501036664995373
1745262832.707665,-0.010233713080150596,-0.009803499662307313,0.054970115020960886,0.048510420400613895,0.006916194540156087,0.03998202302996417,-0.008076670968875951,0.0028408166357807084,0.0410204436472382,-0.05173949192340235,-0.03373931515362717,0.0011108090154055665,0.0011167895218904306,0.0036434862918759414,-1.0842021724855044e-19,56308.45817411199,-0.009772008984530173,-0.00976278142013376,0.10815378879135645,0.0,0.0,0.0,0.3012993956785958,TAKEOFF,-0.010233713080150596,-0.009803499662307313,0.054970115020960886,0.04776675749235702,-0.00020815547616598245,0.042510490738593004,,,,,,,,,,,,,,,,0.053185693418089604,,,,,,,0.493709819813364
1745262832.727605,-0.010424578096104828,-0.009793376122752367,0.05619257506962107,0.04287902939965441,0.0021768407075690816,0.03511770785190136,-0.013791563230312132,-0.0029245741261976935,0.08871995661175983,-0.13874673769832077,0.011557558113277197,-0.12609412846404194,-0.0012406904391471516,0.006277025822425175,0.0,55328.949655643686,-0.009772008984530173,-0.00976278142013376,0.11417977670492838,0.0,0.0,0.0,0.3012993956785958,TAKEOFF,-0.010549781043178094,-0.009649745120822919,0.05661834432404217,0.04374394851989834,-0.008898405019608696,0.03664287013115982,,,,,,,,,,,,,,,,0.05799088148989457,,,,,,,0.48078525190070703
1745262832.7471719,-0.010778711296521836,-0.009653302993566903,0.05875556499407379,0.043367748315027266,-0.009416621473413288,0.03290640404914863,-0.01669102741142551,0.004405088041207785,0.1423845655038255,-0.06789346023802849,0.025018370687727855,-0.10338332936281436,0.0019928061283511853,0.008064506613626676,2.168404344971009e-19,53997.93548733917,-0.009772008984530173,-0.00976278142013376,0.12020576461850027,0.0,0.0,0.0,0.3012993956785958,TAKEOFF,-0.01092960079179476,-0.009651967924038803,0.059521344173296596,0.04130664225013957,-0.01305439046149585,0.03031728527703205,,,,,,,,,,,,,,,,0.061458542684908475,,,,,,,0.46372103099065937
1745262832.76685,-0.01131003345581894,-0.009654109327225614,0.06307872656452433,0.04398552196629898,-0.012370647053233704,0.03057675380075108,-0.031038335342172166,-0.005448091691077295,0.23175521282004846,-0.03233641019301331,0.030848555468903287,-0.08855386362955464,-0.0024287601396343317,0.015852609453523625,2.168404344971009e-19,51244.63924870898,-0.009772008984530173,-0.00976278142013376,0.1262317525320722,0.0,0.0,0.0,0.3012993956785958,TAKEOFF,-0.01131003345581894,-0.009654109327225614,0.06307872656452433,0.04462091507355758,-0.012055520018450417,0.03157650420372402,,,,,,,,,,,,,,,,0.06317184513496368,,,,,,,0.4300400142741113
1745262832.787012,-0.011703801512341207,-0.009552706579531303,0.06893504673148895,0.051672071572049234,-0.006961186990825937,0.027152283299519794,-0.02962692755825664,0.006234686551251607,0.30988670303878374,0.07393292010014241,0.045707656188682055,-0.12021082450082797,0.0033317235591182287,0.016773834918291097,-2.168404344971009e-19,48569.81561613031,-0.009772008984530173,-0.00976278142013376,0.13225774044564412,0.0,0.0,0.0,0.3012993956785958,TAKEOFF,-0.011703801512341207,-0.009552706579531303,0.06893504673148895,0.05272748166024624,-0.0015419851982440482,0.026358574466997645,,,,,,,,,,,,,,,,0.0633525018687176,,,,,,,0.39912249061968647
1745262832.8071337,-0.012345905161657188,-0.009630794446143669,0.07648840630373323,0.05256639728596004,-0.00660298166359832,0.023298051302797402,-0.03797833095173481,0.0022537141706651985,0.39162860458257176,0.040790992306446956,0.025594332966454476,-0.10756436976258463,0.0013809656130419695,0.023643883991812054,0.0,45412.35424966028,-0.009772008984530173,-0.00976278142013376,0.13828372835921604,0.0,0.0,0.0,0.3012993956785958,TAKEOFF,-0.012345905161657188,-0.009630794446143669,0.07648840630373323,0.051730095503131866,-0.009645914292482833,0.02483588009402307,,,,,,,,,,,,,,,,0.06184904356603078,,,,,,,0.3645575365168582
1745262832.8269892,-0.013064542450608214,-0.009577270565485069,0.08370300139469701,0.05071208571206703,-0.009547254795114665,0.02104502472563091,-0.04285898455566296,-0.0012136058387281696,0.44538715293626413,-0.013475552522937891,0.058532188716511536,-0.12760250193564338,-0.0004900981449944686,0.028927516161182165,0.0,43219.015179792914,-0.009772008984530173,-0.00976278142013376,0.14430971627278794,0.0,0.0,0.0,0.3012993956785958,TAKEOFF,-0.013279468490931716,-0.00951998072252157,0.08561568007974837,0.05066020958439653,-0.009878438021957151,0.022413302738355175,,,,,,,,,,,,,,,,0.06069636792442069,,,,,,,0.341613193255647
1745262832.8468459,-0.014007000623706162,-0.009387408874673243,0.09375194331814783,0.04404464974502471,-0.011449072467389238,0.02287093110213403,-0.04109462691401108,0.006596890278090076,0.4934303070545119,-0.07630791765894683,0.06507155428747914,-0.05058198839571633,0.004625306761741332,0.0312155088713022,-8.673617379884035e-19,40840.66798716498,-0.009772008984530173,-0.00976278142013376,0.15033570418635986,0.0,0.0,0.0,0.3012993956785958,TAKEOFF,-0.014260114402153827,-0.009346085653209107,0.09598016552738732,0.045156889847492845,-0.008091135929332449,0.024419228248178954,,,,,,,,,,,,,,,,0.056743264381975585,,,,,,,0.317604019713355
1745262832.8669422,-0.015144139416845517,-0.009249905501419662,0.10511746121170958,0.038640383038413904,-0.005145267618589066,0.019122189845368134,-0.055406794828903455,0.014079033725431785,0.5651782962635915,-0.1304586307615006,0.05964627964273171,-0.09806498778704957,0.010693657876703436,0.04684670320869477,0.0,37209.36878547616,-0.009772008984530173,-0.00976278142013376,0.15636169209993178,0.0,0.0,0.0,0.3012993956785958,TAKEOFF,-0.015144139416845517,-0.009249905501419662,0.10511746121170958,0.038069997843681994,-0.0027086612818651825,0.019046680551408433,,,,,,,,,,,,,,,,0.051527604508799285,,,,,,,0.2824932515319007
1745262832.886846,-0.016355430107452842,-0.009145546329894463,0.11723024078874837,0.03582523578053529,0.008266595074127261,0.017669995328245036,-0.0660062902113682,0.006129833032209408,0.6098795312876428,-0.10341491966130577,0.11061053631306904,-0.07535263003538278,0.005735393193215657,0.06159400099057688,0.0,34483.43181243182,-0.009772008984530173,-0.00976278142013376,0.1623876800135037,0.0,0.0,0.0,0.3012993956785958,TAKEOFF,-0.016355430107452842,-0.009145546329894463,0.11723024078874837,0.03731600346626734,0.014479227390394716,0.017794155846355537,,,,,,,,,,,,,,,,0.04563898257165511,,,,,,,0.2572252910404784
1745262832.907308,-0.017300117966053737,-0.009131750749279202,0.12721436913161363,0.0346817648386247,0.01386422670171893,0.01630088954991921,-0.06414840578977148,-0.0029629203877810277,0.615880972015718,-0.101275587753348,0.12807840614686142,-0.07755180080619097,-0.0013493914793796075,0.06344635077316485,0.0,33680.13520292243,-0.009772008984530173,-0.00976278142013376,0.1684136679270756,0.0,0.0,0.0,0.3012993956785958,TAKEOFF,-0.017485103813508047,-0.009036536551977682,0.12974911200678463,0.03435259457877592,0.012542945439166554,0.016428646609273536,,,,,,,,,,,,,,,,0.04188618920101241,,,,,,,0.24994140659544095
1745262832.9270456,-0.018513893308051827,-0.008849101415112037,0.1399544040670831,0.040759071934534034,0.02117658176016451,0.01571837845546245,-0.059269840254798735,0.012818232168497465,0.6164045806566436,0.02223855962183506,0.06653718026592868,-0.05962650845892685,0.01215281181838948,0.06370108670848329,8.673617379884035e-19,32742.793095530797,-0.009772008984530173,-0.00976278142013376,0.17443965584064752,0.0,0.0,0.0,0.3012993956785958,TAKEOFF,-0.018795856396985666,-0.008868610444569857,0.14245894906343703,0.04082650509338576,0.02540652072786499,0.013393045904908396,,,,,,,,,,,,,,,,0.03558774989464125,,,,,,,0.24153042617641793
1745262832.9470124,-0.019858960931143286,-0.008804182419812928,0.15258768612835055,0.0463970376158557,0.02844228436083853,0.015962278137961514,-0.06806007773552347,0.0025541092282448078,0.6200894287354404,0.08561956906758246,0.04767495857376698,-0.0066652913445660565,0.0038816509738612936,0.07627259545478826,0.0,31649.919834839864,-0.009772008984530173,-0.00976278142013376,0.18046564375421945,0.0,0.0,0.0,0.3012993956785958,TAKEOFF,-0.02051207469677628,-0.009098001740648199,0.15546518228321526,0.04801630090577678,0.06422900864360734,0.03088132985813014,,,,,,,,,,,,,,,,0.029662198721713797,,,,,,,0.23184001979913002
1745262832.9671564,-0.021096741232460893,-0.008462635988899207,0.1650158789490339,0.0517868615434482,0.0373913081351926,0.015423108772176706,-0.05962348552717746,0.022178309438335854,0.5939277254684711,0.11585018608119979,0.0864310215878641,-0.03990164602945756,0.021191448168370243,0.0704340520858593,1.734723475976807e-18,31953.057509460832,-0.009772008984530173,-0.00976278142013376,0.18649163166779134,0.0,0.0,0.0,0.3012993956785958,TAKEOFF,-0.021096741232460893,-0.008462635988899207,0.1650158789490339,0.05267367535421084,0.04020884748717733,0.015199155088328897,,,,,,,,,,,,,,,,0.024313533134180627,,,,,,,0.2345156285727331
1745262832.9868424,-0.022258223234830957,-0.00841161290702538,0.17673083426984987,0.05149494836286762,0.03689006391380832,0.013265308935877644,-0.05719324705432528,0.0032863558644608912,0.558925454378874,0.06126627166602828,0.016789084682492184,-0.061356726994844124,0.005000581383648613,0.06839980677604407,0.0,32707.118427221492,-0.009772008984530173,-0.00976278142013376,0.19251761958136326,0.0,0.0,0.0,0.3012993956785958,TAKEOFF,-0.022258223234830957,-0.00841161290702538,0.17673083426984987,0.05067395238933076,0.03491439895097603,0.012802702077095796,,,,,,,,,,,,,,,,0.020173095774497402,,,,,,,0.24121214972918742
1745262833.007763,-0.0231972340061105,-0.008124796272138423,0.18573676266840877,0.049296228472933204,0.03788810683585111,0.0144008680577559,-0.05517942133865822,0.010685837885559248,0.528236449106394,0.016708788326295007,0.019889864222419187,-0.022520799366810666,0.011224409990750105,0.06600170775232805,0.0,33672.02962948445,-0.009772008984530173,-0.00976278142013376,0.1985436074949352,0.0,0.0,0.0,0.3012993956785958,TAKEOFF,-0.023439133108894443,-0.008095603445201799,0.1878495907461315,0.047006344365197246,0.04190688303355922,0.012897536423984989,,,,,,,,,,,,,,,,0.018626189536130204,,,,,,,0.24986826954215835
1745262833.0278766,-0.02432178621864908,-0.007878709640813202,0.19627989948446956,0.046775578805571254,0.04544074883188951,0.012827213637972096,-0.05864750411681255,0.012723398791771569,0.49104481031747405,-0.025452523939296947,0.023667516638880056,-0.02579089425635584,0.012785637011075395,0.06810545013540859,0.0,34703.260424688495,-0.009772008984530173,-0.00976278142013376,0.2045695954085071,0.0,0.0,0.0,0.3012993956785958,TAKEOFF,-0.024458070400564816,-0.007811920563610833,0.19827915006505406,0.04151538900210543,0.04060366217106878,0.007859738937323148,,,,,,,,,,,,,,,,0.016851255221648084,,,,,,,0.2592310568132829
1745262833.0468364,-0.02580898743578475,-0.008061330377492,0.20634616188781693,0.041203073353695954,0.06784755637682587,0.020346165386440976,-0.10969370425367717,-0.03691190226611011,0.48899191165238454,-0.0681321946532541,0.03994377409240481,0.20113782264302985,-0.02626776658996386,0.11134757006393836,-1.734723475976807e-18,34291.27022805476,-0.009772008984530173,-0.00976278142013376,0.21059558332207903,0.0,0.0,0.0,0.3012993956785958,TAKEOFF,-0.02543426289372145,-0.007508413969758364,0.20782859833282463,0.0404213546486252,0.042470523326335156,0.01638787526136901,,,,,,,,,,,,,,,,0.016677445728362498,,,,,,,0.2554763882812493
1745262833.0669363,-0.026082226253010484,-0.0073315184382899325,0.21473519272842992,0.03814724364677259,0.054629487689627235,0.012129176610784503,-0.036982391826072145,0.018357614392440106,0.3951586656667041,-0.07766236279742687,0.2362283774347749,-0.018287476697021538,0.016110646565616123,0.04857363558106709,1.734723475976807e-18,37946.43976520248,-0.009772008984530173,-0.00976278142013376,0.21662157123565093,0.0,0.0,0.0,0.3012993956785958,TAKEOFF,-0.026082226253010484,-0.0073315184382899325,0.21473519272842992,0.03872103365574394,0.05492646164642637,0.012501678204777841,,,,,,,,,,,,,,,,0.016597971288817882,,,,,,,0.28947969388586187
1745262833.086859,-0.026913663797060786,-0.007189174776851613,0.22265078443565564,0.03856088694726099,0.05844333415412264,0.012407600396007296,-0.04129779672628607,0.0067960491792813235,0.36599892297786873,-0.0648451840040815,-0.22442183827726953,-0.03532943230069534,0.008062028602670445,0.05112008599965034,0.0,38911.61684856012,-0.009772008984530173,-0.00976278142013376,0.22264755914922285,0.0,0.0,0.0,0.3012993956785958,TAKEOFF,-0.026913663797060786,-0.007189174776851613,0.22265078443565564,0.03851222733049883,0.05938626152926524,0.011120616834251562,,,,,,,,,,,,,,,,0.01733377602453581,,,,,,,0.29873342827123717
1745262833.1070786,-0.027274599320312266,-0.006919648051240202,0.22802196685381915,0.03957043097638564,0.05833279096623961,0.011077975515494594,-0.025854954473209155,0.014632758310352226,0.30499951943326026,-0.05458694529717308,-0.12829820689521795,-0.034054771584321034,0.01261730676110533,0.03811691781831228,-8.673617379884035e-19,41459.96625425081,-0.009772008984530173,-0.00976278142013376,0.22867354706279477,0.0,0.0,0.0,0.3012993956785958,TAKEOFF,-0.02737317256052428,-0.006885630261077423,0.22943213303846532,0.04021746412722935,0.055457328340883245,0.011222014032740124,,,,,,,,,,,,,,,,0.017743974543045805,,,,,,,0.3237737536664645
1745262833.126947,-0.027818669520685558,-0.006630911254356974,0.234258625693189,0.043495007298603616,0.06297066827922693,0.012955691248781362,-0.026838391650742612,0.01377793273340347,0.2765600169429499,0.005593754859893958,-0.07865319257997393,-3.2931641847987886e-05,0.01204225379618534,0.038142636956615794,-8.673617379884035e-19,42553.69146827732,-0.009772008984530173,-0.00976278142013376,0.23469953497636667,0.0,0.0,0.0,0.3012993956785958,TAKEOFF,-0.027964393873042177,-0.006592459156449117,0.2354029120670475,0.04286842739763659,0.05817247094908973,0.015352287635157244,,,,,,,,,,,,,,,,0.0183217075688513,,,,,,,0.3348095858511265
1745262833.1472964,-0.028755088180534575,-0.006857747272850511,0.239909711906382,0.0424292610388237,0.08213070344490628,0.023508354563221208,-0.07282905197026994,-0.04264211449416784,0.2652125529645912,0.016856917322277794,-0.03734970708825855,0.29164249402478715,-0.021596080144114117,0.06571748288412316,0.0,43054.37652301326,-0.009772008984530173,-0.00976278142013376,0.2407255228899386,0.0,0.0,0.0,0.3012993956785958,TAKEOFF,-0.028337324371040733,-0.006209549926519756,0.24067555046134553,0.043634412158619684,0.06278928465741566,0.012777676162596275,,,,,,,,,,,,,,,,0.019221396065831127,,,,,,,0.3399230726910856
1745262833.1668477,-0.028615192960431492,-0.005981379931498207,0.24436581141055394,0.04339543808733223,0.05712936032001934,0.014685410107453233,-0.014851706851902768,0.024569344283222043,0.21166748082052705,0.020474911096616512,0.09937456340307947,0.004405747964879065,0.017775772241080904,0.02954811057986162,0.0,45280.786565284885,-0.009772008984530173,-0.00976278142013376,0.24675151080351052,0.0,0.0,0.0,0.3012993956785958,TAKEOFF,-0.028615192960431492,-0.005981379931498207,0.24436581141055394,0.04380662693097776,0.05763944311670328,0.01454676399370266,,,,,,,,,,,,,,,,0.019366366235344018,,,,,,,0.36315793224823123
1745262833.1869583,-0.02872848219054885,-0.00575348385971989,0.2483815655627537,0.044915816431304816,0.051522278815026,0.013287289665627016,-0.0009234879214686635,0.008718665146661394,0.18255721364887706,0.01970511231501322,-0.15383219753635233,-0.050229442359231956,0.008961607098235253,0.02123635588779527,-8.673617379884035e-19,46573.42078963888,-0.009772008984530173,-0.00976278142013376,0.25277749871708244,0.0,0.0,0.0,0.3012993956785958,TAKEOFF,-0.02872848219054885,-0.00575348385971989,0.2483815655627537,0.04472354863950653,0.05170039981642463,0.011221779266078962,,,,,,,,,,,,,,,,0.019868230208948436,,,,,,,0.37704502830947123
1745262833.2070136,-0.02877795056981975,-0.005464992303972836,0.25139901939564097,0.046080620622386534,0.046734554412822156,0.014913010088782222,-0.00472345206202317,0.017131269042334744,0.1746908099480587,0.0032458799005739562,-0.17416833762569853,-0.020847814618746296,0.013489693026903327,0.022930784280438044,8.673617379884035e-19,47219.141119546875,-0.009772008984530173,-0.00976278142013376,0.2588034866306544,0.0,0.0,0.0,0.3012993956785958,TAKEOFF,-0.028767224688219815,-0.005341448574236971,0.25197584403758155,0.04415204951854067,0.04254347847826912,0.0145586821278454,,,,,,,,,,,,,,,,0.020845213883882753,,,,,,,0.38409931989527546
1745262833.2273262,-0.028632626488081528,-0.0050995985517311455,0.254731375567735,0.044749645707020745,0.0449484893792704,0.012804280030557552,0.009745751865190402,0.013977134069797196,0.1535854736632262,0.012452230715676277,-0.0710967827683474,0.002157902343756987,0.011875549021244002,0.01484522382451603,8.673617379884035e-19,48271.47194373843,-0.009772008984530173,-0.00976278142013376,0.2648294745442263,0.0,0.0,0.0,0.3012993956785958,TAKEOFF,-0.02856010605863099,-0.004944707993635332,0.2554678371971685,0.04672977671327133,0.04924873757982199,0.014048185996561317,,,,,,,,,,,,,,,,0.021896113125814035,,,,,,,0.3957719870265776
1745262833.2468262,-0.028520866576900103,-0.004792336484992659,0.25803447579941774,0.04418571287818284,0.04198909477260634,0.014121689766605399,0.0035351295789342045,0.010022030473452747,0.1477998217013342,-0.001662405854743447,-0.06557793631921417,0.006233921522048351,0.010056056016987345,0.017659507079770043,0.0,48785.45835266119,-0.009772008984530173,-0.00976278142013376,0.2708554624577982,0.0,0.0,0.0,0.3012993956785958,TAKEOFF,-0.028520866576900103,-0.004792336484992659,0.25803447579941774,0.043991599785035355,0.04172393143761697,0.014731363179950423,,,,,,,,,,,,,,,,0.023250864129459935,,,,,,,0.40155590183678436
1745262833.2669923,-0.028256553083781707,-0.004453534630744211,0.26144219135005425,0.04552557752195658,0.03711742283049793,0.013494962998303044,0.012880894751617453,0.01631231234316987,0.1583178138691476,0.03701670099124995,-0.035913398471737475,0.009059215956324172,0.01356793487563852,0.01282089203460246,0.0,48705.47690161924,-0.009772008984530173,-0.00976278142013376,0.27688145037137013,0.0,0.0,0.0,0.3012993956785958,TAKEOFF,-0.028256553083781707,-0.004453534630744211,0.26144219135005425,0.04663555785646752,0.03812917808004945,0.014787480157466433,,,,,,,,,,,,,,,,0.024662465228664828,,,,,,,0.40065220303793764
1745262833.2869701,-0.02791605807973627,-0.0039894256368305505,0.2649812804632547,0.04787570925416808,0.029962996076460132,0.014367815144585386,0.020105893217476963,0.027657520550122595,0.17178023030414194,0.07335406913551035,-0.056968734466446735,0.021675238525455102,0.01981507498693215,0.008972514344795401,0.0,48514.07913667467,-0.009772008984530173,-0.00976278142013376,0.282907438284942,0.0,0.0,0.0,0.3012993956785958,TAKEOFF,-0.02791605807973627,-0.0039894256368305505,0.2649812804632547,0.04962411326553139,0.029103962538339134,0.015953915612538803,,,,,,,,,,,,,,,,0.02615120052345382,,,,,,,0.39849513423232574
1745262833.307313,-0.027546146000276408,-0.003668229978623597,0.26873305490408406,0.05159004884207787,0.024768054261498654,0.016140476157253586,0.024360975346236255,0.02748419840564597,0.18380164068563914,0.09758235117934239,-0.06623610388264267,0.03206009153225336,0.02016397831247057,0.0065436900102378015,-1.734723475976807e-18,48338.86820863775,-0.009772008984530173,-0.00976278142013376,0.2889334261985139,0.0,0.0,0.0,0.3012993956785958,TAKEOFF,-0.027546146000276408,-0.003668229978623597,0.26873305490408406,0.05272556517992177,0.02280807401045486,0.0172469308578575,,,,,,,,,,,,,,,,0.0275883762545127,,,,,,,0.39652724568471703
1745262833.3275213,-0.027170123484446414,-0.003601571867992125,0.27192629836081583,0.053104162127191046,0.021223961801858576,0.01649213000123753,0.02300351316143374,0.004770687803740643,0.19361677278865513,0.08591260586564022,-0.06146438185631869,0.014807666475352333,0.008806063176002077,0.00690011833490245,-8.673617379884035e-19,48286.05313164967,-0.009772008984530173,-0.00976278142013376,0.29495941411208587,0.0,0.0,0.0,0.3012993956785958,TAKEOFF,-0.02707133168343629,-0.0033778909342505907,0.2727541259420443,0.05435592229510215,0.017953837004751814,0.020441257521413556,,,,,,,,,,,,,,,,0.029515746856703474,,,,,,,0.3959353073316716
1745262833.346838,-0.026732299567946694,-0.0031918361360893334,0.27638852931647717,0.05128620578142935,0.01530079198790236,0.015217386626841757,0.022304170012846944,0.01866872597001338,0.2156385142091906,0.028971322431175877,-0.03675661697796513,0.01473746362313917,0.01653300498706161,0.006973434120727928,-1.734723475976807e-18,47692.64722093228,-0.009772008984530173,-0.00976278142013376,0.30098540202565777,0.0,0.0,0.0,0.3012993956785958,TAKEOFF,-0.026732299567946694,-0.0031918361360893334,0.27638852931647717,0.05040469081374074,0.011536960125555544,0.016784406140259497,,,,,,,,,,,,,,,,0.030591419150988498,,,,,,,0.3893239610766839
1745262833.3670619,-0.02626450406328852,-0.002992166448796629,0.28125044572608393,0.05261440829389523,0.0175931265462394,0.01228142547287737,0.025849017914533243,0.0038420673058794956,0.23546271447415196,0.05474578197409482,-0.01755557868251148,-0.01852533224320741,0.009297620375707786,0.004795441787693422,0.0,47090.840404270275,-0.009772008984530173,-0.00976278142013376,0.3070113899392297,0.0,0.0,0.0,0.3012993956785958,TAKEOFF,-0.02626450406328852,-0.002992166448796629,0.28125044572608393,0.05324254170423547,0.01892540676699593,0.013313996211832399,,,,,,,,,,,,,,,,0.03132841949038879,,,,,,,0.38269126350416616
1745262833.3869333,-0.02589211774292975,-0.00267380905394938,0.28669567998036577,0.05364600631874565,0.014788172659739671,0.013974771573060965,0.022568618562630705,0.010159769754450397,0.26019974754015324,0.04479178984394458,-0.022563951372933832,0.011576241986481967,0.013263163225192184,0.006311663014285873,1.734723475976807e-18,46259.18344251898,-0.009772008984530173,-0.00976278142013376,0.3130373778528016,0.0,0.0,0.0,0.3012993956785958,TAKEOFF,-0.02589211774292975,-0.00267380905394938,0.28669567998036577,0.05353234465742268,0.015469146713932408,0.015051461681788121,,,,,,,,,,,,,,,,0.03168590352812821,,,,,,,0.3736407961566567
1745262833.4078345,-0.025554976425824064,-0.0025062379197463,0.29136548543110585,0.0546025241058025,0.011843027219127012,0.01501162211152738,0.02551654438857484,0.013956339359954167,0.2763040301818664,0.043680281939488676,-0.014206064926564945,0.0047176504290680765,0.01569003811693407,0.0044729520748298945,-1.734723475976807e-18,45824.2360585514,-0.009772008984530173,-0.00976278142013376,0.3190633657663735,0.0,0.0,0.0,0.3012993956785958,TAKEOFF,-0.025490887601186646,-0.002530605858044845,0.2925877860505971,0.053753090080375196,0.014955154868243203,0.011889289784817687,,,,,,,,,,,,,,,,0.032694526451575424,,,,,,,0.36895914702212157
1745262833.426988,-0.025282162345706446,-0.0024286118414368844,0.29773542140650255,0.05409919523115813,0.014781487633401263,0.012941355685151913,0.011270109048948946,-0.0011824111731065148,0.31541149606206453,0.008562061061895741,-0.016362895676937498,-0.02160600881295991,0.007939323354778207,0.01247878474055808,0.0,44299.80616608861,-0.009772008984530173,-0.00976278142013376,0.32508935367994546,0.0,0.0,0.0,0.3012993956785958,TAKEOFF,-0.02516017074760542,-0.0024071147509036567,0.29893988106952935,0.05314763105096246,0.014096610980113935,0.011826662420084521,,,,,,,,,,,,,,,,0.03228920115946494,,,,,,,0.3528176847947575
1745262833.446811,-0.024864998941302133,-0.0021826187950153893,0.3044544089257894,0.053688315097399825,0.013171289547100042,0.011945045663135645,0.02405024714664056,0.011043100360620622,0.3304309688117259,0.02341295575569962,0.024321798497578317,-0.014648521311730322,0.015461783603845314,0.004906869007570203,8.673617379884035e-19,43652.809137387725,-0.009772008984530173,-0.00976278142013376,0.33111534159351735,0.0,0.0,0.0,0.3012993956785958,TAKEOFF,-0.024825553531863408,-0.002233160139298412,0.3058162723596618,0.05425153708719192,0.00834332656826143,0.01661730258382498,,,,,,,,,,,,,,,,0.031560458519666414,,,,,,,0.34608726348469354
1745262833.4669244,-0.024606779117242975,-0.002091209905070091,0.3116427688354834,0.05529381942829463,0.013041632840488121,0.014743294237994376,0.01324010667229205,0.006072765085090736,0.3590111168122489,0.039679264622489045,-0.019303271575127994,0.021479364544310094,0.013210059256006192,0.011313893085179272,0.0,42395.64859537748,-0.009772008984530173,-0.00976278142013376,0.3371413295070893,0.0,0.0,0.0,0.3012993956785958,TAKEOFF,-0.024606779117242975,-0.002091209905070091,0.3116427688354834,0.05566714405165396,0.014026260138722265,0.015387067534568961,,,,,,,,,,,,,,,,0.030481141886824558,,,,,,,0.3332036325321604
1745262833.4869134,-0.02426535516298167,-0.0020039399713168093,0.3191251070916512,0.05387021326950275,0.007744454632446824,0.013505406690256766,0.01915514281436112,0.0035777660306635308,0.3715831102672358,-0.003388812307931226,0.004679236748655786,-0.02405237122418822,0.012089166041292298,0.007555411923667599,0.0,41718.994376871386,-0.009772008984530173,-0.00976278142013376,0.3431673174206612,0.0,0.0,0.0,0.3012993956785958,TAKEOFF,-0.02426535516298167,-0.0020039399713168093,0.3191251070916512,0.05282062729270705,0.003965941898175392,0.01258907468823043,,,,,,,,,,,,,,,,0.029125325433043137,,,,,,,0.32637105674844863
1745262833.5077896,-0.024249496691686183,-0.0019134873915122776,0.32532838915506523,0.05285354808602316,0.005828256280052327,0.014046076441884338,-0.0012332234280535,0.006558009779638616,0.38078455660049204,-0.024530904502267737,-0.009186113577306417,-0.008796496897130199,0.014217322210187282,0.02030168715372027,0.0,41339.7910128122,-0.009772008984530173,-0.00976278142013376,0.3491933053342331,0.0,0.0,0.0,0.3012993956785958,TAKEOFF,-0.024163066428308944,-0.001902386257981119,0.32694125600161367,0.05401784120779864,0.012547007190831254,0.01698394134864391,,,,,,,,,,,,,,,,0.02899557365008173,,,,,,,0.32257212238014304
1745262833.527796,-0.024128208288109673,-0.0018849029171208373,0.33326366018355846,0.05245697908002603,0.009200120894378473,0.015573235353734245,-0.0034829258617669915,0.0025197431776954704,0.3965474115430255,-0.02716202012982904,0.04850690385485707,0.011635097623910195,0.012100120916367575,0.022185646811722304,8.673617379884035e-19,40465.824345287154,-0.009772008984530173,-0.00976278142013376,0.35521929324780505,0.0,0.0,0.0,0.3012993956785958,TAKEOFF,-0.024082481868656695,-0.001799801812884179,0.3349157719898956,0.05128569487771301,0.006902042085022813,0.013653478314315012,,,,,,,,,,,,,,,,0.027389984509016564,,,,,,,0.31389658521371505
1745262833.5468826,-0.02398499996535685,-0.0017996737533433039,0.34123292084994467,0.052008241532279356,0.009002950884418064,0.013748334226998338,0.00881572985574017,0.005867910380525082,0.3811942417953674,-0.023365447983306822,0.06332407494713499,0.005016520329235337,0.014197033259359108,0.014052710882714647,1.734723475976807e-18,40844.337463361306,-0.009772008984530173,-0.00976278142013376,0.36124528116137694,0.0,0.0,0.0,0.3012993956785958,TAKEOFF,-0.02398499996535685,-0.0017996737533433039,0.34123292084994467,0.051253736975081364,0.00886868815409769,0.014461813331626121,,,,,,,,,,,,,,,,0.02580532428721924,,,,,,,0.31764041256978715
1745262833.5668664,-0.023852645841739017,-0.001941111236349527,0.34924220075723517,0.05163766333734158,0.01027306374400248,0.012796867845816549,0.011303594734380583,-0.007885851805854861,0.38063616533908146,-0.0004972755199247544,0.0027378235881170285,-0.03638923870836769,0.005427290185289276,0.012453995827863773,-4.336808689942018e-19,40604.0737476739,-0.009772008984530173,-0.00976278142013376,0.3672712690749489,0.0,0.0,0.0,0.3012993956785958,TAKEOFF,-0.023852645841739017,-0.001941111236349527,0.34924220075723517,0.05256425291105561,0.011224556245685047,0.011344112785833133,,,,,,,,,,,,,,,,0.024176231368293867,,,,,,,0.3152616224543041
1745262833.5869198,-0.02385444300053272,-0.002033544310386151,0.3572729813236463,0.05221218098605867,0.011331045545585148,0.012305729777653346,0.005313425499566094,-0.006623988868976603,0.38108807880578977,-0.0035111283748764316,-0.023485070646267463,-0.028784195602267856,0.006186695036711043,0.016435484058032745,4.336808689942018e-19,40335.55847399503,-0.009772008984530173,-0.00976278142013376,0.3732972569885208,0.0,0.0,0.0,0.3012993956785958,TAKEOFF,-0.02385444300053272,-0.002033544310386151,0.3572729813236463,0.052357599327801735,0.012905617154216054,0.011608963056691011,,,,,,,,,,,,,,,,0.022689941928036157,,,,,,,0.312612853568104
1745262833.6069114,-0.023938837848355633,-0.0020498829490117653,0.3637035715036484,0.05352526541176117,0.013496760537670825,0.01730013683186583,0.00135721857060402,0.0011779452368324127,0.3818037134266601,0.013774331334033055,-0.0022268018417107185,0.06388636976757017,0.011204772891959038,0.019163211626365136,8.673617379884035e-19,40264.91743185077,-0.009772008984530173,-0.00976278142013376,0.3793232449020927,0.0,0.0,0.0,0.3012993956785958,TAKEOFF,-0.02399823169122297,-0.002169771763433322,0.3652458829738205,0.05168362153531161,0.015134374575223689,0.015352076121809341,,,,,,,,,,,,,,,,0.022453552947291483,,,,,,,0.3119177076855404
1745262833.6272192,-0.024013742360450868,-0.002167835863288685,0.37147903769913954,0.05290578690980272,0.011721608512282032,0.019197920096159192,-0.0011388536764396207,-0.004597806394167538,0.36942849602616235,-0.007816861816779987,0.02262650051015277,0.06033220280464743,0.0073122460245814026,0.020719904423378118,8.673617379884035e-19,40541.13111428207,-0.009772008984530173,-0.00976278142013376,0.38534923281566463,0.0,0.0,0.0,0.3012993956785958,TAKEOFF,-0.02404556164240775,-0.002209561282830911,0.37305086930737397,0.05197916438060236,0.022701773995660555,0.012542470460980861,,,,,,,,,,,,,,,,0.021281270641875003,,,,,,,0.3146398070582425
1745262833.6469214,-0.024114550385832188,-0.002294084755139955,0.3790714422806855,0.051586563781750805,0.0143785609174238,0.016432417484052827,-0.009695362825901496,-0.007547465978156244,0.3651256525716383,-0.03984024581948484,0.027426463666564312,-0.0013919104198885576,0.005306052911734601,0.026343815845785157,4.336808689942018e-19,40520.27344173818,-0.009772008984530173,-0.00976278142013376,0.39137522072923653,0.0,0.0,0.0,0.3012993956785958,TAKEOFF,-0.0241594718034567,-0.0023177780694973835,0.38047090238328934,0.04809039259483661,0.014469087409027798,0.01334646269499751,,,,,,,,,,,,,,,,0.02031927380180651,,,,,,,0.3144338767224792
1745262833.667056,-0.024240577901957255,-0.0023325241520758197,0.3862278797985902,0.04795064392519062,0.012812110985009666,0.013549987836189535,-0.011365002549600888,0.004828286547264448,0.33848859384381724,-0.07243582374536929,0.046772384655283786,-0.024603256047984027,0.012770406346191157,0.026820135903278253,-8.673617379884035e-19,41466.75180629603,-0.009772008984530173,-0.00976278142013376,0.3974012086428084,0.0,0.0,0.0,0.3012993956785958,TAKEOFF,-0.024190073380572174,-0.002434381709611834,0.3877590001022478,0.048949394174858135,0.009343116174000047,0.012395825073253222,,,,,,,,,,,,,,,,0.019733005018215143,,,,,,,0.32384166598583314
1745262833.687051,-0.024338413176095954,-0.0024904280133355955,0.3933527939762957,0.04952308560195805,0.013186607758392345,0.013650122009083982,-0.003912240934030424,-0.003240560783788953,0.3308908550658376,-0.011088870867758685,0.04020905589716076,-0.013422435554603249,0.007577318630968175,0.022273461453094168,-4.336808689942018e-19,41621.89825866354,-0.009772008984530173,-0.00976278142013376,0.4034271965563804,0.0,0.0,0.0,0.3012993956785958,TAKEOFF,-0.024338413176095954,-0.0024904280133355955,0.3933527939762957,0.050410682837429666,0.01613553949111258,0.013571701443544174,,,,,,,,,,,,,,,,0.019145778712056895,,,,,,,0.32539629276438886
1745262833.7071066,-0.024520931684664984,-0.002697366810857071,0.4001988240132489,0.04837614861617525,0.011513542354810594,0.015646873712955124,-0.009081834837293527,-0.013905117061783906,0.3251038334395826,-0.05244994233075072,0.006733593388682969,-0.0029372301504235173,0.0007911066718803209,0.025614889248517736,0.0,41742.94144735132,-0.009772008984530173,-0.00976278142013376,0.40945318446995227,0.0,0.0,0.0,0.3012993956785958,TAKEOFF,-0.024520931684664984,-0.002697366810857071,0.4001988240132489,0.04694039024833488,0.007960766496701807,0.014878593519689747,,,,,,,,,,,,,,,,0.01879079540301919,,,,,,,0.32661168207891955
1745262833.7273262,-0.024631474927982767,-0.002794495019844192,0.40539035320808914,0.05017703073261192,0.015524467126954836,0.014303377660844663,-0.004575032651363956,-0.005739577597355095,0.30642454089860743,0.010990064001151887,0.012479544311738408,-0.016632273966192275,0.005544655779228075,0.022454143383837222,0.0,42589.89917337549,-0.009772008984530173,-0.00976278142013376,0.41547917238352416,0.0,0.0,0.0,0.3012993956785958,TAKEOFF,-0.024732903862782638,-0.0028764927473565695,0.4067527960284469,0.05023762417250084,0.018526235966818832,0.012663322898462209,,,,,,,,,,,,,,,,0.01926512434000138,,,,,,,0.3351780563154575
1745262833.7468314,-0.024819490961979936,-0.003057228027168423,0.4117149926094272,0.04948273050617003,0.020405520786904437,0.013321447105778964,-0.0015100966072663364,-0.01600200744496175,0.3017044554132388,-0.013836595483688697,0.004098075709308178,-0.0121427469812567,-0.0008637342372512629,0.020802275778988518,5.421010862427522e-20,42729.50848485269,-0.009772008984530173,-0.00976278142013376,0.4215051602970961,0.0,0.0,0.0,0.3012993956785958,TAKEOFF,-0.024897639615325717,-0.0032094942137751536,0.41289454211225646,0.049606050840362584,0.0158565177645853,0.014463908369856627,,,,,,,,,,,,,,,,0.0191634689845096,,,,,,,0.33660071532600594
1745262833.766865,-0.025095155412031982,-0.0031912048164758344,0.41778030847164854,0.04991826587956465,0.018129003938993866,0.01538195898690744,-0.009243675422717403,-0.003703304333820115,0.28917878971621636,-0.002916048593351403,-0.010928661955752376,0.010418436171876669,0.006205115870802189,0.025387782847908547,0.0,43228.23720056718,-0.009772008984530173,-0.00976278142013376,0.427531148210668,0.0,0.0,0.0,0.3012993956785958,TAKEOFF,-0.025095155412031982,-0.0031912048164758344,0.41778030847164854,0.049884272226922065,0.017076981122420638,0.015318668024243214,,,,,,,,,,,,,,,,0.019314846908853482,,,,,,,0.3417079913906978
1745262833.7868366,-0.025326010359458643,-0.0034038451898282278,0.42361644347159344,0.04900306812532194,0.019834172474130208,0.014176611411125011,-0.010880925285538214,-0.012543064933369114,0.2803409744042942,-0.020008621090166216,0.009884870798413681,-0.004935850843498332,0.0007955860538071828,0.026369075074324844,0.0,43588.37025895415,-0.009772008984530173,-0.00976278142013376,0.43355713612423996,0.0,0.0,0.0,0.3012993956785958,TAKEOFF,-0.025326010359458643,-0.0034038451898282278,0.42361644347159344,0.04841397750962767,0.019305865926058794,0.013967227016338712,,,,,,,,,,,,,,,,0.019523841813709454,,,,,,,0.34542072065382423
1745262833.807845,-0.025538717390263484,-0.0035581809103962937,0.42793739684898285,0.04714487365398378,0.017353306423433662,0.01202190126634433,-0.01660939772816508,-0.009257589941886602,0.2499556326383291,-0.04089973246392763,0.019732674649670066,-0.037959469575539063,0.0024349984809138884,0.02878231347440674,0.0,44961.38255485928,-0.009772008984530173,-0.00976278142013376,0.43958312403781186,0.0,0.0,0.0,0.3012993956785958,TAKEOFF,-0.025634225969209702,-0.0036374048202467532,0.4292519200967272,0.04544870843470425,0.022511653222831145,0.009979272377461953,,,,,,,,,,,,,,,,0.02055989112795802,,,,,,,0.35977286203733455
1745262833.8274548,-0.02576652815982717,-0.003720254450494717,0.4336320981216242,0.04692509833603667,0.021472249106113433,0.014767508528459374,-0.004725472045324293,0.00021735483586093353,0.2622754984692666,0.005665169002050344,0.031056329129079765,0.023930097766628484,0.007630837889418374,0.022765878805058648,0.0,44539.68749458907,-0.009772008984530173,-0.00976278142013376,0.44560911195138375,0.0,0.0,0.0,0.3012993956785958,TAKEOFF,-0.025800175826847117,-0.0038340405446822042,0.43480457931701233,0.045319061792919384,0.015196353475679153,0.014388191891709588,,,,,,,,,,,,,,,,0.020875479302425864,,,,,,,0.35533090253610167
1745262833.846804,-0.026021972183285384,-0.004029841796718385,0.43907739186583394,0.04623444837432377,0.015271058359136391,0.01799373219273114,-0.010861804942055958,-0.014271095180496915,0.2508497144496716,-0.003633158742721572,0.002752003043121218,0.08179507402803138,-0.0008397496889108517,0.02615914043184886,0.0,45031.796295161286,-0.009772008984530173,-0.00976278142013376,0.4516350998649557,0.0,0.0,0.0,0.3012993956785958,TAKEOFF,-0.02600339504259414,-0.003919784493572064,0.44012624279303253,0.045638228341227785,0.0189179921786145,0.01506395586757392,,,,,,,,,,,,,,,,0.021321911989261925,,,,,,,0.36051757438827775
1745262833.8669407,-0.02633812032320469,-0.004207165313849258,0.44455142799476655,0.04398976498211731,0.01527944336847006,0.012458850294227164,-0.017829877635886934,-0.014144299194129056,0.2578547486859731,-0.046935277323618574,0.0033022268220550587,-0.042311467334844505,-0.0009562152586894245,0.030592475666807672,5.421010862427522e-20,44838.754650474926,-0.009772008984530173,-0.00976278142013376,0.4576610877785276,0.0,0.0,0.0,0.3012993956785958,TAKEOFF,-0.02633812032320469,-0.004207165313849258,0.44455142799476655,0.0437912684347275,0.016485207073498532,0.01142103967013103,,,,,,,,,,,,,,,,0.02184408603837043,,,,,,,0.3584779822634922
1745262833.8868265,-0.02654815423067154,-0.004421113975615059,0.45003795968279714,0.041100557208435785,0.01800447240578879,0.013421870249124963,-0.014849620165955974,-0.007704221892891491,0.26246441401929205,-0.07714700008257486,0.02876334963167786,0.027517291533551213,0.0024185925357849756,0.02930734325154738,0.0,44738.58342676116,-0.009772008984530173,-0.00976278142013376,0.46368707569209955,0.0,0.0,0.0,0.3012993956785958,TAKEOFF,-0.02654815423067154,-0.004421113975615059,0.45003795968279714,0.04040901790683342,0.014738856369878098,0.01558667954180112,,,,,,,,,,,,,,,,0.02227713689509623,,,,,,,0.35742216665140714
1745262833.9074078,-0.026748516644880947,-0.004551979325466498,0.4544164154380356,0.044562639132492234,0.020023075016894147,0.013576439028908606,-0.015451359415277973,-0.007040030017924345,0.26211809883761317,-0.004698992166109885,0.0274418172760198,0.014628765242788526,0.002641931247005817,0.02973108306900496,-2.168404344971009e-19,44944.92827572364,-0.009772008984530173,-0.00976278142013376,0.46971306360567144,0.0,0.0,0.0,0.3012993956785958,TAKEOFF,-0.026778755300648847,-0.004543067308626421,0.4555136818888648,0.04500507317396272,0.021144261662061556,0.013762915230232374,,,,,,,,,,,,,,,,0.02343803993460574,,,,,,,0.3595989624119052
1745262833.9277205,-0.02686960061922508,-0.004718428965860473,0.46002397642918924,0.04624007148118827,0.019835212281860217,0.016330798211091953,-0.0056223668416813515,-0.003647739230054829,0.272058741127334,0.026911796129281657,0.02316341332282447,0.05203057696944131,0.004398728943184471,0.024688681651225286,4.336808689942018e-19,44615.77512176466,-0.009772008984530173,-0.00976278142013376,0.47573905151924334,0.0,0.0,0.0,0.3012993956785958,TAKEOFF,-0.026920355797599896,-0.004810913542269776,0.4610490964037646,0.0399454236328665,0.02154399420523379,0.011838410274269805,,,,,,,,,,,,,,,,0.02376418979211707,,,,,,,0.3561301140240298
1745262833.94729,-0.027139337609745164,-0.004947386864144754,0.46566116434077,0.044058349320812706,0.024848787381937333,0.015856305869774927,-0.014164944372847033,-0.008974067400238225,0.27634131493784264,-0.010446763554947124,-0.0029631617954989117,0.03749547014683744,0.0011696626778318225,0.029933045147373605,0.0,44503.63046086324,-0.009772008984530173,-0.00976278142013376,0.4817650394328153,0.0,0.0,0.0,0.3012993956785958,TAKEOFF,-0.027335626384280356,-0.005047510807333237,0.46692198254975553,0.0393986409835244,0.02331756430023351,0.012954914321494836,,,,,,,,,,,,,,,,0.024169131579067086,,,,,,,0.35495251109429243
1745262833.9668498,-0.027385729132458483,-0.005155358813876191,0.4714639657274255,0.04229379375693635,0.024293924405203695,0.013929801215862176,-0.00891838601442422,-0.012515424567868782,0.27548318996129756,-0.019041366972546967,0.007948966380436311,0.012513091502699244,-0.001044214009201936,0.02725851331794371,-1.0842021724855044e-19,44561.34195371091,-0.009772008984530173,-0.00976278142013376,0.4877910273463872,0.0,0.0,0.0,0.3012993956785958,TAKEOFF,-0.027385729132458483,-0.005155358813876191,0.4714639657274255,0.04290651968641163,0.025154051457202196,0.014849082154070667,,,,,,,,,,,,,,,,0.024454946772208705,,,,,,,0.35555825647966943
1745262833.986945,-0.027592579948889886,-0.005239972781485755,0.47743998591742615,0.04463128203207633,0.021493123164805415,0.015320371562053403,-0.01736776461984449,-0.00973743980211382,0.2961078683493611,0.012209471006838673,-0.0012093217739853964,0.01975173272589834,0.0004453270847533073,0.033045277614998314,-2.710505431213761e-20,43781.433599723074,-0.009772008984530173,-0.00976278142013376,0.4938170152599591,0.0,0.0,0.0,0.3012993956785958,TAKEOFF,-0.027592579948889886,-0.005239972781485755,0.47743998591742615,0.0449254357925837,0.023035364056259177,0.01572437845400539,,,,,,,,,,,,,,,,0.024621852845872386,,,,,,,0.3474197630444431
1745262834.0072083,-0.027706206477535755,-0.005321578470109054,0.4822232831978197,0.04267029362404191,0.019044879285778516,0.014597116287280235,-0.0038169701659725255,-0.0057019430425192565,0.28270151155124706,-0.045173359779337195,0.019664073348625823,-0.0028445477331920845,0.0026336727016764844,0.024939701049844665,-2.168404344971009e-19,44445.66072365046,-0.009772008984530173,-0.00976278142013376,0.49984300317353103,0.0,0.0,0.0,0.3012993956785958,TAKEOFF,-0.027759150532284074,-0.005437902889070532,0.48358437263392007,0.044714212773451216,0.019962292399193345,0.015263152630850792,,,,,,,,,,,,,,,,0.025530653250238552,,,,,,,0.35434462676262374
1745262834.0275517,-0.028027172527892538,-0.005499926370145326,0.4884402971272732,0.04193086100953912,0.02225997508271166,0.016564807756638305,-0.015903553332336832,-0.002275976099679423,0.2904708325242533,-0.007106156279203088,-0.0009207311350206646,0.0642068211410362,0.004418684669636654,0.032470480476393115,0.0,44137.19845939677,-0.009772008984530173,-0.00976278142013376,0.5058689910871029,0.0,0.0,0.0,0.3012993956785958,TAKEOFF,-0.028028927348186274,-0.005593119114539141,0.4898694217097173,0.039685891564201825,0.02217690567985665,0.01411343235145264,,,,,,,,,,,,,,,,0.02559652910684421,,,,,,,0.3511195873869377
1745262834.0468414,-0.028098605822463693,-0.005618926100807411,0.49486127068343755,0.04212329472628369,0.022346417269986048,0.016918133244768294,-0.00181042387282874,-0.0005562411613719092,0.3009682872472889,-0.025044505553901194,0.01630905124700661,0.005089765147833455,0.0053454704425513555,0.024916101387666423,8.673617379884035e-19,43682.622006803555,-0.009772008984530173,-0.00976278142013376,0.5118949790006748,0.0,0.0,0.0,0.3012993956785958,TAKEOFF,-0.028180837320006938,-0.00568025551248333,0.4961399099065171,0.042898991835600066,0.025478282080716064,0.014696927297035211,,,,,,,,,,,,,,,,0.025361050995658333,,,,,,,0.34639587161179897
1745262834.066858,-0.028318650426206557,-0.005757724746378614,0.5014829051422853,0.04062253084845594,0.021969898391868248,0.016363443635682925,-0.0069942375335758705,-0.0022788336425212086,0.32411989067181035,-0.05014058358811973,-0.00874584070030082,0.005669272034193947,0.004327329141222772,0.02905034770827264,0.0,42714.30850593147,-0.009772008984530173,-0.00976278142013376,0.5179209669142467,0.0,0.0,0.0,0.3012993956785958,TAKEOFF,-0.028318650426206557,-0.005757724746378614,0.5014829051422853,0.039439962633460605,0.020781299689682897,0.01602370951542125,,,,,,,,,,,,,,,,0.02510434748295436,,,,,,,0.3364456753344254
1745262834.0869424,-0.02847830186680609,-0.005866081367347437,0.507960098245604,0.04308772699071072,0.02269157949373812,0.015040922697819106,-0.007292061091013676,-0.00032393813354314287,0.31441037373847613,0.019144817735027624,0.0012597004214327506,-0.017549660582136573,0.0053191776735907435,0.029183082976794283,-4.336808689942018e-19,43039.07399716857,-0.009772008984530173,-0.00976278142013376,0.5239469548278186,0.0,0.0,0.0,0.3012993956785958,TAKEOFF,-0.02847830186680609,-0.005866081367347437,0.507960098245604,0.04422717537824344,0.022005121040149137,0.014616230399220238,,,,,,,,,,,,,,,,0.02491363578603436,,,,,,,0.33976620208944575
1745262834.1072812,-0.0285733689696832,-0.005966625172875857,0.5133546466275882,0.043977315064079155,0.023380842501637862,0.017669618975169072,0.000831338113433772,-0.0025556673246723703,0.31984273536965246,0.03474879296809401,0.006844269527521289,0.053551827525995015,0.003914466824963336,0.024672627712263084,0.0,42899.10226140456,-0.009772008984530173,-0.00976278142013376,0.5299729427413906,0.0,0.0,0.0,0.3012993956785958,TAKEOFF,-0.028762496136406,-0.006055868178488028,0.514756225445102,0.043932850767613864,0.020633359113837183,0.018865022300907832,,,,,,,,,,,,,,,,0.02537852842997261,,,,,,,0.33833303593527664
1745262834.1275485,-0.0288220897827162,-0.005928151958036,0.5201879343378889,0.04336831908638623,0.021602515176030634,0.01733145340736911,-0.008645652864817728,0.0060150689525667765,0.33429409940720756,-0.008856268725899582,-0.00962848653353416,0.021521231063221152,0.0092195715671449,0.031241461260980152,8.673617379884035e-19,42246.669445319174,-0.009772008984530173,-0.00976278142013376,0.5359989306549625,0.0,0.0,0.0,0.3012993956785958,TAKEOFF,-0.028863436631866603,-0.006103315898834129,0.5215607243854848,0.044560000464688596,0.03034878658104603,0.016526710688200354,,,,,,,,,,,,,,,,0.025051897454434854,,,,,,,0.331693310714319
1745262834.1470218,-0.028923499754914914,-0.006082819246204217,0.5269719170141643,0.04389836435579417,0.02271016899674993,0.017365407140028426,-0.004049536881340705,0.00144380270140776,0.3244229577702816,0.037130386290185044,0.009476706544464055,0.043743599916982644,0.006231580995045647,0.028395457321736206,0.0,42537.07340160516,-0.009772008984530173,-0.00976278142013376,0.5420249185685344,0.0,0.0,0.0,0.3012993956785958,TAKEOFF,-0.028910109487488213,-0.006046323841607682,0.5283396498969658,0.04883995453899218,0.01965224314615329,0.018328114960170484,,,,,,,,,,,,,,,,0.024635636304458457,,,,,,,0.33464053909201424
1745262834.1668181,-0.029022927876238808,-0.006121958299093032,0.5338489151707813,0.04397419774718209,0.021836052012798094,0.017864306737183217,-0.004501144260047456,-0.005427923765310308,0.3337716877680586,-0.02103099239383151,0.007765146963491231,-0.006646496294246247,0.002120337432665739,0.029260122145524425,0.0,42059.21023748275,-0.009772008984530173,-0.00976278142013376,0.5480509064821063,0.0,0.0,0.0,0.3012993956785958,TAKEOFF,-0.029022927876238808,-0.006121958299093032,0.5338489151707813,0.04241963043825213,0.021939765375219505,0.01664332712837859,,,,,,,,,,,,,,,,0.024198141010846295,,,,,,,0.32979771708954536
1745262834.1868308,-0.029127026871076208,-0.006127415283035192,0.5406130288706786,0.04277563739512944,0.024058561446618155,0.011731275479523528,-0.002307268160192272,0.006009976393063427,0.3233449614585807,-0.026447201184404953,0.011190231269040068,-0.09871753540356477,0.008969024995308895,0.027839973005535423,0.0,42391.5023887455,-0.009772008984530173,-0.00976278142013376,0.5540768943956783,0.0,0.0,0.0,0.3012993956785958,TAKEOFF,-0.029127026871076208,-0.006127415283035192,0.5406130288706786,0.04231265689689627,0.02329548384610832,0.009828529549230742,,,,,,,,,,,,,,,,0.023855990426191794,,,,,,,0.33316155285502724
1745262834.2077522,-0.029262895366783722,-0.006165690874429778,0.546061310783597,0.04329891603688071,0.025870201374813915,0.015319031495955824,-0.002986567659551018,0.0025329031302476455,0.3226103998130956,0.006290384782715954,0.005672150392505813,0.016552531758200643,0.006825878473326472,0.02838157699465671,-4.336808689942018e-19,42490.04793608863,-0.009772008984530173,-0.00976278142013376,0.5601028823092502,0.0,0.0,0.0,0.3012993956785958,TAKEOFF,-0.02936037538809682,-0.006220980476515624,0.5474526479517039,0.0461611349462263,0.028447115599903157,0.018718439276487368,,,,,,,,,,,,,,,,0.02428990414287271,,,,,,,0.33416240638936046
1745262834.22787,-0.029411438362431975,-0.006232309425414236,0.5529175671804375,0.04548316349782544,0.023238994618110825,0.019571991438936006,-0.0024386616982009436,0.0011251666322762482,0.3202013758179175,0.032512880659754925,0.000575665315354198,0.05685248176127791,0.005915476696428591,0.02829565318736127,4.336808689942018e-19,42479.79699839163,-0.009772008984530173,-0.00976278142013376,0.5661288702228221,0.0,0.0,0.0,0.3012993956785958,TAKEOFF,-0.029445425706514972,-0.006191870664480533,0.5543232542491101,0.04094257206328563,0.02132013390024937,0.017929930576202388,,,,,,,,,,,,,,,,0.023931359068653242,,,,,,,0.33405822523400225
1745262834.2468688,-0.029480368790049196,-0.0063100184308677604,0.5595947398925837,0.043245895845801935,0.022042044982972197,0.01738152815341787,-0.004905006698704091,-0.008435225469013641,0.31371134867898776,-0.008680623448528345,-0.0008128281921982532,0.008772057001818101,0.00011051658126106071,0.029752649982659918,0.0,42651.48361532588,-0.009772008984530173,-0.00976278142013376,0.572154858136394,0.0,0.0,0.0,0.3012993956785958,TAKEOFF,-0.029480368790049196,-0.0063100184308677604,0.5595947398925837,0.04304467490064789,0.020062572540564993,0.017620556466560935,,,,,,,,,,,,,,,,0.023624089163020435,,,,,,,0.33580524418312
1745262834.2669694,-0.02959695967919313,-0.006244045243837099,0.5663327976483017,0.046055227644332584,0.024684333162011348,0.015211075671699291,-0.005129881657514233,0.007732913921776159,0.31990521829184954,0.033735017783747864,0.006241020728637192,-0.033214446123898296,0.009923032278613528,0.030385876136970413,-8.673617379884035e-19,42333.088045800694,-0.009772008984530173,-0.00976278142013376,0.5781808460499659,0.0,0.0,0.0,0.3012993956785958,TAKEOFF,-0.02959695967919313,-0.006244045243837099,0.5663327976483017,0.04657468738724323,0.025785947283017963,0.014350579695500775,,,,,,,,,,,,,,,,0.023362072366388514,,,,,,,0.33256898988127104
1745262834.286846,-0.029696686361502647,-0.0063232560028391276,0.5727980175748006,0.044061677003288634,0.023602002165575692,0.012977726234006288,-0.010945877925452973,0.0006289990586024032,0.312594104915184,-0.04268929781993372,0.01119121549960341,-0.06171011566739415,0.0055271788001536246,0.03381750492920643,0.0,42566.40862648771,-0.009772008984530173,-0.00976278142013376,0.5842068339635378,0.0,0.0,0.0,0.3012993956785958,TAKEOFF,-0.029696686361502647,-0.0063232560028391276,0.5727980175748006,0.04173270442000701,0.02052492335734888,0.012074794358643509,,,,,,,,,,,,,,,,0.02321603314661167,,,,,,,0.33493897973967285
1745262834.307349,-0.029664231937387566,-0.006281254008348324,0.5780107678286321,0.0434336613726345,0.02269938290019009,0.013788395615201388,0.005898928910743631,0.006526116408048023,0.3123295450665319,0.007136443193721611,0.023208249643807837,-0.011705857967509956,0.009077423984297948,0.023709288551537533,0.0,42675.5782497511,-0.009772008984530173,-0.00976278142013376,0.5902328218771098,0.0,0.0,0.0,0.3012993956785958,TAKEOFF,-0.029694158091567537,-0.006324912402916127,0.5793257145890569,0.047621841219416046,0.025964317668026163,0.017890686678066942,,,,,,,,,,,,,,,,0.023605087847519413,,,,,,,0.3360507897041197
1745262834.327557,-0.029767259070096926,-0.006340450997525435,0.5844357139090199,0.04531655244238084,0.024216859639047086,0.017398757127019698,-0.0040552001563777616,0.00111094486937449,0.3058610762453524,0.009336008430400363,-0.009453744833147856,0.00523138943978295,0.005759356671085809,0.02962510778336025,0.0,42879.17116368072,-0.009772008984530173,-0.00976278142013376,0.5962588097906817,0.0,0.0,0.0,0.3012993956785958,TAKEOFF,-0.029781576621857504,-0.006288194030395061,0.5856699514100563,0.04760342220577329,0.027408769770592575,0.01948326661390321,,,,,,,,,,,,,,,,0.02347994820549728,,,,,,,0.3381292142433672
1745262834.3469434,-0.029781356834787866,-0.006267467830818923,0.5907870878899839,0.04326074586163926,0.022121219887076236,0.01515704656665555,0.00010091619804894014,0.0012390829816652721,0.3124552484900328,-0.0160259519270766,-0.007800671204016802,-0.024992482520226865,0.005985431410225046,0.027491745449290894,-4.336808689942018e-19,42582.73564833063,-0.009772008984530173,-0.00976278142013376,0.6022847977042536,0.0,0.0,0.0,0.3012993956785958,TAKEOFF,-0.029768926219880344,-0.006394512375657519,0.5920701378502523,0.04214100446013099,0.020335215310026744,0.015387371059010313,,,,,,,,,,,,,,,,0.023340705847369192,,,,,,,0.33510513996873637
1745262834.3669205,-0.029906454368446637,-0.006397342487705171,0.5969922432354688,0.04683799679181461,0.027591904636529177,0.016341109928470817,-0.012373260392911357,-0.0043352806267339785,0.2978039081472077,0.03572673168468518,-0.006986524436587569,0.013349500457234596,0.0024729472338435145,0.03455491099075614,0.0,43132.267715894326,-0.009772008984530173,-0.00976278142013376,0.6083107856178255,0.0,0.0,0.0,0.3012993956785958,TAKEOFF,-0.029906454368446637,-0.006397342487705171,0.5969922432354688,0.047343958306138155,0.027150069835623264,0.01698492258074556,,,,,,,,,,,,,,,,0.023341625303029443,,,,,,,0.3407221357863474
1745262834.386934,-0.02973561364276018,-0.006390829308539225,0.6031684192851753,0.04531151602171555,0.02236767592958399,0.0136294280874114,0.011683322530597208,0.0005742880414042716,0.2981129843030538,-0.011631722995423862,0.023072550235666026,-0.05981100016503394,0.005375927455200993,0.020326143991509896,4.336808689942018e-19,43096.90573205056,-0.009772008984530173,-0.00976278142013376,0.6143367735313974,0.0,0.0,0.0,0.3012993956785958,TAKEOFF,-0.02973561364276018,-0.006390829308539225,0.6031684192851753,0.04458937607064031,0.02330697171369808,0.011957712048370196,,,,,,,,,,,,,,,,0.023122450314836805,,,,,,,0.34035924761321246
