TIME,POS_X,POS_Y,POS_Z,ROLL,PITCH,YAW,VEL_X,VEL_Y,VEL_Z,ROLL_RATE,PITCH_RATE,YAW_RATE,CMD_ROLL,CMD_PITCH,CMD_YAW,CMD_THRUST,DES_POS_X,DES_POS_Y,DES_POS_Z,DES_YAW,DES_VEL_X,DES_VEL_Y,DES_VEL_Z,STATUS,VICON_POS_X,VICON_POS_Y,VICON_POS_Z,VICON_ROLL,VICON_PITCH,VICON_YAW,ACC_X,ACC_Y,ACC_Z,ROLL_ACC,PITCH_ACC,YAW_ACC,PITCH_PRED,PITCH_ACT,OBS_POS_X,OBS_POS_Z,OBS_VEL_X,OBS_VEL_Z,OBS_PITCH,OBS_PITCH_RATE,INFERENCE_TIME,POS_ERROR,VICON_VEL_X,VICON_VEL_Y,VICON_VEL_Z,VICON_ROLL_RATE,VICON_PITCH_RATE,VICON_YAW_RATE,CMD_FORCE
1745325415.3539588,0.008077001908963181,0.01817297900664314,0.05342581712244628,0.05070931846926785,-0.021041748804013546,-0.04494945933660928,-0.0008789607359913841,-0.0022280312554661943,-0.0008045758401421875,0.00909949522843973,0.00953991235881729,0.015928015548299014,-0.00100292946123692,0.0003956566683924745,0.0,52373.99273811334,0.008077001908963181,0.01817297900664314,0.05342581712244628,0.0,0.0,0.0,0.3014567461393483,TAKEOFF,0.008077001908963181,0.01817297900664314,0.05342581712244628,0.05087301997990622,-0.020686190275311322,-0.044544681207645404,,,,,,,,,,,,,,,,0.0,,,,,,,0.4436089383315333
1745325415.3746712,0.008099867670522686,0.018190403207579343,0.053439439562244416,0.050669329684720814,-0.02166233467295791,-0.04561916900026954,8.026883805024149e-05,0.0007006236010792795,-6.852426614052708e-05,-0.00032345181423744964,0.03321252865768434,-0.001070568594831215,0.0003258034305920898,-5.5860360553827704e-05,-2.710505431213761e-20,52966.20699451955,0.008077001908963181,0.01817297900664314,0.059454952045233246,0.0,0.0,0.0,0.3014567461393483,TAKEOFF,0.008079989254773946,0.018162978022885475,0.05344182923583199,0.050734465573753336,-0.020782389088736,-0.044490879137316974,,,,,,,,,,,,,,,,0.0060155811754829145,,,,,,,0.4508581048197083
1745325415.3942778,0.008086493079083492,0.01820598583704721,0.053400427564433306,0.05009409032338069,-0.019878510418370507,-0.04436742748536454,-0.0021364192130654304,0.0024245920016584825,-0.0031517306696527197,-0.013932189379296182,0.028345668827840873,0.012512163662098539,0.0010821200950035061,0.0009198216012324956,1.0842021724855044e-19,53679.06227600688,0.008077001908963181,0.01817297900664314,0.06548408696802022,0.0,0.0,0.0,0.3014567461393483,TAKEOFF,0.008098487693082296,0.018195211942590505,0.053417236605482914,0.04964568213727899,-0.02094412960768844,-0.04447174728552526,,,,,,,,,,,,,,,,0.012083708210440119,,,,,,,0.4597128617008214
1745325415.413866,0.008076178627535943,0.018188876389754582,0.05345279748708657,0.05063734401818802,-0.02210226753103259,-0.04594395320855885,-0.0037995540584472064,0.0015083097976902873,0.0025503390622992265,0.013556734295697741,0.034987383455832397,-0.019072670023522136,0.0006617358977373455,0.0016328388946857952,-5.421010862427522e-20,54088.165708202105,0.008077001908963181,0.01817297900664314,0.07151322189080718,0.0,0.0,0.0,0.3014567461393483,TAKEOFF,0.008046922201486263,0.018205384111780083,0.05345000032021855,0.0486525358060792,-0.02215040083655973,-0.0449897877417887,,,,,,,,,,,,,,,,0.018060431419185122,,,,,,,0.4648606493622397
1745325415.433676,0.00812674490991895,0.01817094568628705,0.05347505169102871,0.051003602480626194,-0.024889488454005158,-0.04434730068689181,0.0020889121820899495,-0.0021942548094203724,-0.0005639279047392647,0.017196058197155403,0.040477728813460345,0.013108091463516103,-0.000926736447122005,-0.0009228590196916908,0.0,54772.10423626918,0.008077001908963181,0.01817297900664314,0.07754235681359414,0.0,0.0,0.0,0.3014567461393483,TAKEOFF,0.008079686067861446,0.018218865443797506,0.053529215996277246,0.050382853196090475,-0.024814245439890397,-0.04554801389813817,,,,,,,,,,,,,,,,0.024067356613537767,,,,,,,0.4735790040114111
1745325415.4535885,0.008095711908586888,0.018204177193161284,0.0535774038939666,0.05096693047243067,-0.024297966263344337,-0.04592980906198235,-5.648454993193103e-06,-0.0005716923057662931,0.0040771482794462865,0.0069383934580493,0.03416765679724769,-0.005432836905657913,-0.00021203655021177412,-1.3448279027272747e-05,1.3552527156068805e-20,55204.422974352776,0.008077001908963181,0.01817297900664314,0.08357149173638112,0.0,0.0,0.0,0.3014567461393483,TAKEOFF,0.008072050129825793,0.01817015609733229,0.05355589734880666,0.050221058922142264,-0.02372395618083661,-0.04398196242010455,,,,,,,,,,,,,,,,0.029994109903269454,,,,,,,0.4791650813650346
1745325415.4733746,0.00810594527660526,0.018220603474343115,0.053658803191895935,0.050111490762484404,-0.02557408257871608,-0.04458932592382375,0.0029917624277135085,-0.0015746113622900019,0.006913118962359683,0.004634256730697932,0.038946367175540786,-0.0004610320376121093,-0.0006081575833903105,-0.0012545647672874694,5.421010862427522e-20,55689.43503823672,0.008077001908963181,0.01817297900664314,0.08960062665916807,0.0,0.0,0.0,0.3014567461393483,TAKEOFF,0.00810594527660526,0.018220603474343115,0.053658803191895935,0.05077056613168847,-0.025794248835881103,-0.045136855220106846,,,,,,,,,,,,,,,,0.03594186667329631,,,,,,,0.485504123081773
1745325415.493784,0.008111500161432663,0.01824634977267532,0.05376556233881658,0.04888294908322588,-0.025766825801935546,-0.04549001206644215,0.0004003199190296575,-0.0010440443980143542,0.007724306850556195,-0.02491851093774785,0.04024045588781907,-0.0165940845527684,-0.00036328993702860725,-0.00019057230014118964,0.0,56227.74513352413,0.008077001908963181,0.01817297900664314,0.09562976158195505,0.0,0.0,0.0,0.3014567461393483,TAKEOFF,0.008100716409784535,0.018241322605693503,0.05378310658451701,0.05021814517168778,-0.025132062640696503,-0.044546860445642246,,,,,,,,,,,,,,,,0.04186427775165752,,,,,,,0.4926323820234129
1745325415.514656,0.007987619472651197,0.018286191026246627,0.05400150250662235,0.04716810012340666,-0.024816257682431318,-0.04478943907424535,-0.01048528088719713,0.003290952325146341,0.01421181173223235,-0.0458150175418183,0.03988606943440826,0.00045960558199316696,0.0014130197433037434,0.0042818358863723205,0.0,56580.12823421203,0.008077001908963181,0.01817297900664314,0.10165889650474201,0.0,0.0,0.0,0.3014567461393483,TAKEOFF,0.007950264425816256,0.01831177374569423,0.0539988777612258,0.046645851466049076,-0.02853366584678301,-0.04121070456799185,,,,,,,,,,,,,,,,0.04765761228674088,,,,,,,0.4973532909049325
1745325415.5334713,0.007724563857878605,0.01845609756727399,0.054646945374294924,0.04500183341769685,-0.027574632507590773,-0.04113452209145816,-0.016940190502895705,0.013438835350025925,0.039808150235864995,-0.049764032863770985,0.04276098195956454,0.048482857821913396,0.005664031829999046,0.007134987014475236,0.0,56327.175729167466,0.008077001908963181,0.01817297900664314,0.10768803142752897,0.0,0.0,0.0,0.3014567461393483,TAKEOFF,0.007779219859105832,0.01842772661606264,0.05491171351080905,0.04333762017824952,-0.030691806701016913,-0.044990231078133235,,,,,,,,,,,,,,,,0.05304301253139574,,,,,,,0.4939600076269348
1745325415.5534477,0.007581338731051967,0.018574561416908518,0.056414014057274045,0.03897520590750691,-0.03629994220526422,-0.04392089208730216,-0.007783633147813329,0.008293070029044114,0.10694606976714206,-0.10796653481428908,0.057412328237802,-0.019447360860290218,0.00384701859234808,0.0037106850265922198,-2.168404344971009e-19,54687.27041720286,0.008077001908963181,0.01817297900664314,0.11371716635031595,0.0,0.0,0.0,0.3014567461393483,TAKEOFF,0.007581338731051967,0.018574561416908518,0.056414014057274045,0.03931966484763709,-0.038982552173304985,-0.0447770837193161,,,,,,,,,,,,,,,,0.05730670303845551,,,,,,,0.4724897843102085
1745325415.5735776,0.0073404903385427996,0.0186052324343645,0.05983647824598603,0.0393357202050448,-0.049003344298489786,-0.04689858761584058,-0.012316574917800539,0.0024304880691921734,0.18685024221371838,-0.06943381916728344,0.07934102388411683,-0.051779737183618085,0.0014857629940693306,0.006207634400099193,1.0842021724855044e-19,52366.94167372785,0.008077001908963181,0.01817297900664314,0.1197463012731029,0.0,0.0,0.0,0.3014567461393483,TAKEOFF,0.0073404903385427996,0.0186052324343645,0.05983647824598603,0.04018523972046351,-0.04842797511553541,-0.04738219656656998,,,,,,,,,,,,,,,,0.05991590930178397,,,,,,,0.44352319606231005
1745325415.5935423,0.0070022232381425666,0.018775384804598554,0.0639169743484718,0.04089036957699407,-0.06135302684239887,-0.05258366292115334,-0.024380116994584904,0.007294942233321013,0.2619884492659888,-0.045569845420642636,0.097392353354997,-0.13500485248241698,0.004081920926937247,0.012730746843849783,-4.336808689942018e-19,50008.92353117673,0.008077001908963181,0.01817297900664314,0.12577543619588988,0.0,0.0,0.0,0.3014567461393483,TAKEOFF,0.006903260317581932,0.018929655856838472,0.0651998577552851,0.04330197068061114,-0.06088662673308931,-0.05325797675699835,,,,,,,,,,,,,,,,0.06187073091587928,,,,,,,0.4155536318123425
1745325415.6143901,0.006656257635883683,0.01897653795167233,0.07095610535152688,0.047308623819078396,-0.06451004255074379,-0.055044502985338604,-0.020394969206035084,0.013831525461009525,0.3685431867742751,0.055677969434654605,0.12229951213093603,-0.14650726933965064,0.008282561285173407,0.01246439378346742,8.673617379884035e-19,46085.36913169846,0.008077001908963181,0.01817297900664314,0.13180457111867683,0.0,0.0,0.0,0.3014567461393483,TAKEOFF,0.006573108973594969,0.01897926016605281,0.07246297219643291,0.04436716852285108,-0.062088486929739,-0.053544866914026844,,,,,,,,,,,,,,,,0.060870354093627906,,,,,,,0.3717657272602192
1745325415.633409,0.00608175819632381,0.019150989168319223,0.08001775690553392,0.047990107291341864,-0.05608614923504014,-0.05462685313929532,-0.03448140506126701,0.014445071272415249,0.47365507156260134,0.05929176397232342,0.10188077671387379,-0.06930328852531238,0.010031672172422148,0.023517356267558798,-8.673617379884035e-19,41698.24285984594,0.008077001908963181,0.01817297900664314,0.1378337060414638,0.0,0.0,0.0,0.3014567461393483,TAKEOFF,0.00608175819632381,0.019150989168319223,0.08001775690553392,0.04895047138971423,-0.05632285183234087,-0.05440446487868294,,,,,,,,,,,,,,,,0.05785863354623578,,,,,,,0.3261626104612881
1745325415.6534421,0.005574380130264111,0.01931591942029844,0.09078396179679986,0.042828210641760275,-0.037628218720524124,-0.056636182568411284,-0.03440174482791399,0.007899905886077111,0.5493778639640985,-0.017449052177867325,0.10401043612237672,-0.05519538235357922,0.007012704657873943,0.027087178145162483,4.336808689942018e-19,38052.90142293447,0.008077001908963181,0.01817297900664314,0.14386284096425078,0.0,0.0,0.0,0.3014567461393483,TAKEOFF,0.005574380130264111,0.01931591942029844,0.09078396179679986,0.04273799400552392,-0.03662260912252446,-0.05588391217317172,,,,,,,,,,,,,,,,0.05315013492202293,,,,,,,0.2904944886340972
1745325415.6735797,0.0050901084512214026,0.01952717074128713,0.10064072995039981,0.04164941585618338,-0.02713992245935448,-0.05540028702572175,-0.03419188647562207,0.005745131943965604,0.5959192789761791,-0.005863670054450369,0.08969354056219175,-0.036263826090921575,0.006335717190976475,0.030024683927374562,4.336808689942018e-19,35586.87206420098,0.008077001908963181,0.01817297900664314,0.14989197588703773,0.0,0.0,0.0,0.3014567461393483,TAKEOFF,0.004860842202831226,0.019659463065869416,0.10328765570679556,0.03508220110480545,-0.015787614743655927,-0.053777643426595224,,,,,,,,,,,,,,,,0.04936031395861732,,,,,,,0.26734867830666087
1745325415.6934643,0.0043194041894862875,0.019805178072342354,0.11421598370769492,0.0376880282034886,-0.026252149374203046,-0.05305592912946987,-0.0350642855825124,0.0063822084518416235,0.6861863961782947,-0.03651844973710581,0.0781232633044618,0.007443653497192164,0.00871253367598005,0.03834781662709186,0.0,30519.696989311436,0.008077001908963181,0.01817297900664314,0.1559211108098247,0.0,0.0,0.0,0.3014567461393483,TAKEOFF,0.004126369038406277,0.019941674693588346,0.11700970796451887,0.03633774879654884,-0.025885415287950447,-0.05222786191200872,,,,,,,,,,,,,,,,0.04190586165462163,,,,,,,0.22194528188771612
1745325415.7148652,0.003560967183075956,0.020088805856832946,0.1286140475706944,0.04131138339004798,-0.022853202240104262,-0.05272357011088092,-0.0337753036785777,0.016085468691342586,0.7168418993828198,0.020519545017046628,0.10031111722488015,0.012533156803688111,0.0199978340348006,0.0429442435810683,-1.734723475976807e-18,27888.487170961682,0.008077001908963181,0.01817297900664314,0.16195024573261166,0.0,0.0,0.0,0.3014567461393483,TAKEOFF,0.003435830901125918,0.01999066852376194,0.13155633358051333,0.041415482964695306,-0.02349218496499952,-0.0515276317374595,,,,,,,,,,,,,,,,0.03369520841389683,,,,,,,0.19938313817464146
1745325415.7338042,0.0029223529162805124,0.020248906288983983,0.14347497651680213,0.04267458518680526,-0.015769732726736208,-0.051681282516426764,-0.03386821828123257,0.010226275476790992,0.7468021538389332,0.01798837407526124,0.09676193025534338,0.028268294799216834,0.016343878096060995,0.05010636013731439,0.0,25135.732352863997,0.008077001908963181,0.01817297900664314,0.16797938065539864,0.0,0.0,0.0,0.3014567461393483,TAKEOFF,0.002828750993391439,0.02031893865232816,0.1464179221069373,0.04083305582150205,-0.014886097793118938,-0.05043087698564945,,,,,,,,,,,,,,,,0.0251265935316946,,,,,,,0.17643963787074354
1745325415.753568,0.0025548861887544298,0.02055171232629694,0.15834416534886217,0.038095954762281975,-0.004157369634925451,-0.05507603082491856,-0.01189248220389968,0.015526162836850684,0.7397754525178993,-0.024811555068924712,0.10250143362430164,-0.019142048623108036,0.024164909941099717,0.027400639843868424,3.469446951953614e-18,24157.461624620057,0.008077001908963181,0.01817297900664314,0.1740085155781856,0.0,0.0,0.0,0.3014567461393483,TAKEOFF,0.0025548861887544298,0.02055171232629694,0.15834416534886217,0.03785909062187956,0.001176889878371754,-0.05513465083877325,,,,,,,,,,,,,,,,0.016778677014005403,,,,,,,0.16843834130612434
1745325415.7738593,0.002237135215268588,0.020850554363653153,0.17281950732278956,0.03989082617381321,0.012175254623061547,-0.050454895021170704,-0.009818364867558955,0.01683941289738497,0.6906653159875303,0.011068180580779623,-0.020846782152227267,0.025065481377475787,0.025094201365931882,0.024410877827387045,-1.734723475976807e-18,25276.849985563822,0.008077001908963181,0.01817297900664314,0.18003765050097256,0.0,0.0,0.0,0.3014567461393483,TAKEOFF,0.002237135215268588,0.020850554363653153,0.17281950732278956,0.03993575707833099,0.012618053457671781,-0.05190826413037474,,,,,,,,,,,,,,,,0.009663076307953931,,,,,,,0.17760026206720247
1745325415.7938592,0.0020278089645155138,0.02110469897327614,0.18415837057734977,0.03827313161540042,0.02918762040465756,-0.05177229465550538,-0.011001215195623793,0.015281544041246944,0.6914266759160346,0.0025821842836750656,0.013250071903644304,0.056849784739025064,0.024902054206256213,0.027314774675903708,0.0,24433.525735070772,0.008077001908963181,0.01817297900664314,0.18606678542375954,0.0,0.0,0.0,0.3014567461393483,TAKEOFF,0.0019139463992753742,0.021207598290961964,0.18673385303500578,0.03690811617725378,0.02566376686552924,-0.05359138524597657,,,,,,,,,,,,,,,,0.006987829739476147,,,,,,,0.17068846217364414
1745325415.8146327,0.001628487958076897,0.021486164672874525,0.1972860623970819,0.0382759061943373,0.03004690653640213,-0.05039233891440334,-0.018323115231628037,0.014818078210697697,0.6175596088632904,-0.002362101389355279,0.00734793066788374,0.06413330138542093,0.0225422584241782,0.03288178504935679,3.469446951953614e-18,26937.174579190574,0.008077001908963181,0.01817297900664314,0.19209592034654652,0.0,0.0,0.0,0.3014567461393483,TAKEOFF,0.0016644491662779755,0.021585077425186613,0.19988381106349906,0.03702402390983122,0.03804884040693207,-0.05427067676174419,,,,,,,,,,,,,,,,0.008916171035732315,,,,,,,0.1913806297538914
1745325415.833399,0.0014821405764330238,0.021852533536521376,0.20961642887258103,0.040138160235592406,0.03417484773122122,-0.049997396172984994,-0.004811575245017268,0.014820479376440533,0.5821991203289372,0.04543418717724668,0.002203541359241448,0.05760019551617743,0.022591117656566215,0.018501269649505714,0.0,27670.782076959244,0.008077001908963181,0.01817297900664314,0.19812505526933347,0.0,0.0,0.0,0.3014567461393483,TAKEOFF,0.0014821405764330238,0.021852533536521376,0.20961642887258103,0.041268246352907344,0.03286861955220526,-0.048908068270857655,,,,,,,,,,,,,,,,0.013750744882480504,,,,,,,0.1975447507847797
1745325415.853423,0.0013958910947474295,0.022134729920070668,0.22069407615292602,0.044419741358647596,0.027532748614743696,-0.050624401419744815,0.0013495270671747858,0.009513106250937493,0.5223143521320709,0.05131930380758386,-0.07234034320801168,0.005449566527341115,0.016351536075955124,0.011453627792968657,-1.734723475976807e-18,29726.023063723842,0.008077001908963181,0.01817297900664314,0.20415419019212044,0.0,0.0,0.0,0.3014567461393483,TAKEOFF,0.0013958910947474295,0.022134729920070668,0.22069407615292602,0.0437588656287889,0.025222770043834667,-0.05149647676109857,,,,,,,,,,,,,,,,0.018272945564640857,,,,,,,0.215071412752244
1745325415.8734825,0.0013771625713641744,0.022524638018550078,0.23058830787840437,0.04893481948150725,0.016882191382693108,-0.04661397749466963,-0.005000134409835057,0.019484353427342435,0.4502793772075448,0.11603162907111124,-0.04187997306451371,0.043010922241847376,0.023720686129180456,0.015672478680353708,1.734723475976807e-18,32472.265829302258,0.008077001908963181,0.01817297900664314,0.2101833251149074,0.0,0.0,0.0,0.3014567461393483,TAKEOFF,0.0013771625713641744,0.022524638018550078,0.23058830787840437,0.050482641064491136,0.014002466502469028,-0.047185787826678795,,,,,,,,,,,,,,,,0.021913194766718946,,,,,,,0.23912020068017692
1745325415.8934066,0.0015684087025206023,0.022788394836502798,0.23763892018326913,0.04971767754967376,0.017731196784772425,-0.04662272408081349,0.006757387390528196,0.017606598989732165,0.41520366050928015,0.07153787592058704,0.01764189876743756,0.049474176483689424,0.02146838279668698,0.005268919748788735,0.0,33883.51075125756,0.008077001908963181,0.01817297900664314,0.21621246003769437,0.0,0.0,0.0,0.3014567461393483,TAKEOFF,0.001629707570487179,0.02288930657408778,0.23916233562868722,0.050522258732752484,0.010631692646654195,-0.044210426181333654,,,,,,,,,,,,,,,,0.02286388075501123,,,,,,,0.2517788140173639
1745325415.9148147,0.0019157924552555845,0.02322122968056795,0.24527829992952177,0.05076717934797997,0.012497053436722472,-0.0427460913174577,0.028038254244827795,0.02087977102286286,0.3523271194382823,0.060692672707489674,-0.04352657477408869,0.07425526463293076,0.022691653321453367,-0.01113226672804557,1.734723475976807e-18,36396.19488925847,0.008077001908963181,0.01817297900664314,0.22224159496048135,0.0,0.0,0.0,0.3014567461393483,TAKEOFF,0.0019307736774167895,0.02336140088617708,0.24658410148815668,0.04796107294526738,0.014960595192613165,-0.04415606485727307,,,,,,,,,,,,,,,,0.024374886925478238,,,,,,,0.27486348527665777
1745325415.9334333,0.0022252891935211397,0.02370057853579103,0.25162358685099606,0.04776231717066565,0.015303640567130562,-0.0415900054425304,0.01954529081090694,0.028256476451514467,0.28804089156865964,0.024343266467753064,-0.09404017771550471,0.08075760912466266,0.026348114224667596,-0.004931176890776712,1.734723475976807e-18,39066.75598009612,0.008077001908963181,0.01817297900664314,0.2282707298832683,0.0,0.0,0.0,0.3014567461393483,TAKEOFF,0.00234099056998967,0.023742709041752002,0.25275621517009994,0.04856793145454079,0.021243118013887584,-0.04105489121349858,,,,,,,,,,,,,,,,0.024701271765110663,,,,,,,0.300232246708113
1745325415.9534478,0.002776042056939497,0.024068563826895144,0.2570067314681208,0.05069720437629003,0.017390907783425086,-0.04014709570367263,0.027857843070872336,0.023208837557245114,0.246817661160317,0.06856221247682369,-0.007141460349957909,0.05767068190611239,0.022219545271138855,-0.010574585758357236,0.0,40817.66001291307,0.008077001908963181,0.01817297900664314,0.23429986480605527,0.0,0.0,0.0,0.3014567461393483,TAKEOFF,0.002776042056939497,0.024068563826895144,0.2570067314681208,0.051566815835714826,0.01916073716453552,-0.041290840863999444,,,,,,,,,,,,,,,,0.024051193095860672,,,,,,,0.3173758771323366
1745325415.9737508,0.0032271021301624563,0.024260469187629908,0.26061884053342166,0.04935579487617332,0.015665173106041676,-0.038740581608575186,0.034525586800797904,0.013941430347076511,0.20810532320045225,0.015707849916940193,-0.04808261707909981,0.07382409340921758,0.015729633940613642,-0.014484187886933952,0.0,42646.41382504843,0.008077001908963181,0.01817297900664314,0.24032899972884222,0.0,0.0,0.0,0.3014567461393483,TAKEOFF,0.0033047012273697287,0.024308024393175264,0.261329580802597,0.04981787535758152,0.01368669102043745,-0.04073118408037348,,,,,,,,,,,,,,,,0.021731468069212403,,,,,,,0.33575359010889394
1745325415.993483,0.003716312066911185,0.024566397834880207,0.2641202402381053,0.05109581242504226,0.004757990646649875,-0.04109199712943215,0.02558952268565433,0.013789823309894965,0.14988412733774242,0.05061477620537167,-0.06460190421788264,0.026591665671025472,0.014854291231057767,-0.009026087323338981,-8.673617379884035e-19,45193.14974923847,0.008077001908963181,0.01817297900664314,0.2463581346516292,0.0,0.0,0.0,0.3014567461393483,TAKEOFF,0.003925724626773251,0.024667270181129394,0.26478678724336635,0.050035318281314044,-0.007104994390428077,-0.0383908307651059,,,,,,,,,,,,,,,,0.019374824259253496,,,,,,,0.36222736307836445
1745325416.0142682,0.004322656185925728,0.024973217165601327,0.2671064911581164,0.05274408721365898,-0.0011871844989242769,-0.04260832352706225,0.026115083883144423,0.020569741853170207,0.12262267634437969,0.0601570238740593,-0.003999267813754367,-0.014293720503598735,0.018319597267863166,-0.0095855838920611,0.0,46567.62612835412,0.008077001908963181,0.01817297900664314,0.25238726957441615,0.0,0.0,0.0,0.3014567461393483,TAKEOFF,0.004671973214303329,0.024952584115764703,0.2677746435051525,0.04989860110111996,0.0038842632444580504,-0.0392725925770119,,,,,,,,,,,,,,,,0.01664313176228285,,,,,,,0.3769820847315831
1745325416.033533,0.005292270569639792,0.025235576086276242,0.2697535035110668,0.05094873448517173,-0.006774766486807045,-0.04106874710489369,0.053987441481575964,0.007941061509868036,0.11704088699991558,-0.005380400928588732,-0.008399645205866611,0.017501529944085513,0.011720432829081223,-0.02495601315555862,0.0,47154.14300516329,0.008077001908963181,0.01817297900664314,0.2584164044972031,0.0,0.0,0.0,0.3014567461393483,TAKEOFF,0.005292270569639792,0.025235576086276242,0.2697535035110668,0.04991891441745719,-0.00998017202949144,-0.040315647342890296,,,,,,,,,,,,,,,,0.01364422296034484,,,,,,,0.38338558638862547
1745325416.0534317,0.0058425311981171735,0.025679859171390394,0.2721866549410708,0.04977561886993453,-0.006546241210708466,-0.04165492301200475,0.029922888734825348,0.020803406370477173,0.11408872731632536,0.013820596802320997,-0.0836378228496992,-0.03168239807948983,0.018632795339320773,-0.012791569573773254,1.734723475976807e-18,47677.7564679666,0.008077001908963181,0.01817297900664314,0.2644455394199901,0.0,0.0,0.0,0.3014567461393483,TAKEOFF,0.0058425311981171735,0.025679859171390394,0.2721866549410708,0.05063960432055454,-0.0006556825387369024,-0.04390191652169372,,,,,,,,,,,,,,,,0.011012310324188151,,,,,,,0.38915897737726124
1745325416.0742943,0.006419362576853519,0.02598866679163962,0.27398124339593755,0.05012708007445879,-0.010045320549279618,-0.04182959635906018,0.02028970546814461,0.023038878748469504,0.09942914252533686,0.0032591727122470663,0.021665551246741112,-0.0088206765718085,0.019557999127982936,-0.008196686439646772,1.734723475976807e-18,48674.88593935053,0.008077001908963181,0.01817297900664314,0.27047467434277706,0.0,0.0,0.0,0.3014567461393483,TAKEOFF,0.007085418817546789,0.02599725414576184,0.27509138029526553,0.046417570583889144,-0.010752562653660785,-0.04158136694921063,,,,,,,,,,,,,,,,0.008725180240687467,,,,,,,0.40030691989122325
1745325416.0938153,0.007381082932565979,0.026314017980788553,0.27665983217490864,0.04800138000026786,-0.006846405795910609,-0.04134855604910321,0.01759517941728826,0.025058415226579946,0.12403115095270312,-0.017959368685785355,0.05058612758645599,0.010729061116339979,0.02121092059471611,-0.007921456624817358,1.734723475976807e-18,48176.689969407,0.008077001908963181,0.01817297900664314,0.276503809265564,0.0,0.0,0.0,0.3014567461393483,TAKEOFF,0.007765855138044138,0.026290121802146117,0.27732532229140305,0.04368926165671369,-0.006456090413889904,-0.04446057890270343,,,,,,,,,,,,,,,,0.008172218912174631,,,,,,,0.39471143061757413
1745325416.11533,0.008480594861619698,0.026532891920986006,0.27978525701949863,0.04746149056998984,-0.014909876822376834,-0.04257346037032461,0.05166585755247121,0.009698037240821142,0.15651874449511777,-0.04069694559023658,0.014616628989402804,0.016545193675162852,0.014006007750384327,-0.026930321311955607,0.0,47331.68917622234,0.008077001908963181,0.01817297900664314,0.282532944188351,0.0,0.0,0.0,0.3014567461393483,TAKEOFF,0.008893771654996628,0.026599199097723784,0.2812090983646515,0.047110838745164536,-0.015810457983759338,-0.044940490882926336,,,,,,,,,,,,,,,,0.008809132533042434,,,,,,,0.3853371495713108
1745325416.133622,0.00918781395315997,0.026867976465197913,0.28337248716744273,0.049242461983110636,-0.009282661154619462,-0.046414731961387644,0.02079967919967413,0.019351191905579337,0.16915301982695835,0.00785692944177934,-0.09870515888294795,-0.06964986086408782,0.01948535176679394,-0.011716015503234312,-1.734723475976807e-18,47148.59278697517,0.008077001908963181,0.01817297900664314,0.28856207911113796,0.0,0.0,0.0,0.3014567461393483,TAKEOFF,0.009581647694596504,0.02692850512013619,0.28424902420689835,0.04998608914817975,-0.016495019864480518,-0.04969682482728752,,,,,,,,,,,,,,,,0.010186694691796403,,,,,,,0.3833246786088437
1745325416.1534352,0.010487049443877414,0.027119913575240358,0.2876960759466678,0.05006311094792538,-0.020855281661755234,-0.04565922473834622,0.060440748385133566,0.016387931090309265,0.21334014522650274,0.0034541009006234576,0.01952523381893979,-0.061517399270407155,0.018995753774448145,-0.0351648033150076,0.0,45730.4924054611,0.008077001908963181,0.01817297900664314,0.2945912140339249,0.0,0.0,0.0,0.3014567461393483,TAKEOFF,0.010487049443877414,0.027119913575240358,0.2876960759466678,0.04989031954591967,-0.02181485545843925,-0.04745603037445979,,,,,,,,,,,,,,,,0.011549844004905423,,,,,,,0.3679546554622045
1745325416.1734028,0.0112314746573664,0.027324679753852988,0.29176856047544064,0.04944074038094791,-0.025509774181429357,-0.047084160795779664,0.048495819554448344,0.01480150437107083,0.24558568784877643,-0.004768353994328714,-0.08627946280181444,-0.048794812349443425,0.018917943587505866,-0.03035682059673306,0.0,44744.514647844815,0.008077001908963181,0.01817297900664314,0.30062034895671186,0.0,0.0,0.0,0.3014567461393483,TAKEOFF,0.011416478641483551,0.02736615930829368,0.2929229120296266,0.04677608030025393,-0.024130086519127826,-0.04308927311305678,,,,,,,,,,,,,,,,0.013117106548475758,,,,,,,0.357484634087979
1745325416.1938453,0.011971311430557026,0.027576056807280373,0.29753702864400394,0.048676735479204404,-0.019206916166618827,-0.04885708700227341,0.02556785205020778,0.010722466294209813,0.28260397166727447,0.01260630145301404,-0.02864588651829328,-0.06503781046309101,0.01765856390709139,-0.019150769340712026,0.0,43343.95764274216,0.008077001908963181,0.01817297900664314,0.3066494838794988,0.0,0.0,0.0,0.3014567461393483,TAKEOFF,0.012372614819767272,0.027622723343913583,0.29888864077770955,0.04691451909977934,-0.026406988106923403,-0.045668155226138325,,,,,,,,,,,,,,,,0.013660906236180343,,,,,,,0.34289870586205995
1745325416.2145243,0.013010137758295558,0.027901784958399033,0.30426411371028167,0.0495216308176481,-0.031993347739451075,-0.04417915168282312,0.038181009254261954,0.01995913536978186,0.3276954222745968,0.009519069061121757,0.06362327722431682,0.011012189713716444,0.02481850824721,-0.02933856235575516,0.0,41501.077597799034,0.008077001908963181,0.01817297900664314,0.3126786188022858,0.0,0.0,0.0,0.3014567461393483,TAKEOFF,0.01322989223544357,0.02788377393525167,0.3056233515037365,0.050942253414225806,-0.032072970199363164,-0.04741502299028447,,,,,,,,,,,,,,,,0.013776407024266262,,,,,,,0.32418531571861925
1745325416.233515,0.014045449710763833,0.02805799390149396,0.3115318298494642,0.04950917091457059,-0.03766510044791748,-0.046665307111148066,0.05725436610595262,0.010144670070884359,0.366607943105263,-0.007039979328557701,-0.0028603510417125936,-0.018043695261388278,0.020044963692472655,-0.04475032510872046,-1.734723475976807e-18,39781.5041797347,0.008077001908963181,0.01817297900664314,0.31870775372507276,0.0,0.0,0.0,0.3014567461393483,TAKEOFF,0.014053132420487363,0.028092428038064384,0.3131939257110773,0.04969226729193802,-0.027139973971616882,-0.046327354276389475,,,,,,,,,,,,,,,,0.013595211366608854,,,,,,,0.3071793631497918
1745325416.2534382,0.014882635419378643,0.028297658602940475,0.31959117613707505,0.05060265246840145,-0.03164139302307039,-0.0445066715826546,0.050261052308280665,0.010046213470522241,0.4076984477669201,-0.00019668645100093946,-0.09016483647088043,0.02851925872978025,0.021664537618794808,-0.04403022441141302,-1.734723475976807e-18,37810.4498974282,0.008077001908963181,0.01817297900664314,0.3247368886478597,0.0,0.0,0.0,0.3014567461393483,TAKEOFF,0.014882635419378643,0.028297658602940475,0.31959117613707505,0.049918530567684194,-0.030084496326718762,-0.04315231470196898,,,,,,,,,,,,,,,,0.013240247038836368,,,,,,,0.2881855381996604
1745325416.27347,0.01561804834975074,0.02848241877377232,0.32636466629027533,0.05002529356005283,-0.029362849489420074,-0.04589357618725087,0.056942808611944694,0.011632461528051223,0.4115492103635305,-0.006517549414901144,-0.05352254107081752,0.01245188040490533,0.023257113465496984,-0.05013171646923009,0.0,37558.222156954,0.008077001908963181,0.01817297900664314,0.3307660235706467,0.0,0.0,0.0,0.3014567461393483,TAKEOFF,0.01570896680059309,0.02851039233398464,0.3281228962054456,0.049507021086006776,-0.03446355223765712,-0.04269761219344634,,,,,,,,,,,,,,,,0.013510139734423825,,,,,,,0.2857914011309875
1745325416.293761,0.016325737291915852,0.028648352244809636,0.3351777141830301,0.05104152880019709,-0.03318116543499672,-0.044219601425774815,0.03920084609163976,0.005501410025985821,0.4369631950305616,0.014258687707005504,-0.044415052740751665,-0.002812926892320261,0.02019812096258493,-0.04069434750336964,0.0,36090.08424298766,0.008077001908963181,0.01817297900664314,0.33679515849343367,0.0,0.0,0.0,0.3014567461393483,TAKEOFF,0.01641772226993759,0.028771843530054506,0.33697309641982504,0.053261078051949545,-0.03814398435421502,-0.044075014752920194,,,,,,,,,,,,,,,,0.013430979338608448,,,,,,,0.27201204107616134
1745325416.3159714,0.017052482824023645,0.0288568354227004,0.3441822536473334,0.0509598055593364,-0.0388830818921784,-0.044906597421216075,0.043333980055931316,0.004503899307348714,0.44032930026272765,-0.002961802093275835,0.02114170170203208,-0.019686426330127942,0.020186632912323182,-0.04567926346056538,0.0,35549.45622458662,0.008077001908963181,0.01817297900664314,0.3428242934162206,0.0,0.0,0.0,0.3014567461393483,TAKEOFF,0.01722988813492864,0.028941596416529193,0.34781537286274306,0.05182527282362661,-0.038005458039949605,-0.044896605570050555,,,,,,,,,,,,,,,,0.014019561389887573,,,,,,,0.2670031226855302
1745325416.333693,0.01751250862052626,0.0290778817992434,0.35331000072003127,0.051138819783753627,-0.04595823576196002,-0.04338893334632137,0.023938617725534055,0.010065972384002541,0.4470634739231128,0.0020772524948333617,0.001927351414808135,0.00514788451678482,0.02535050409758007,-0.03268899156607752,-3.469446951953614e-18,34823.67868295587,0.008077001908963181,0.01817297900664314,0.3488534283390076,0.0,0.0,0.0,0.3014567461393483,TAKEOFF,0.017723583236465366,0.029107738373109558,0.35514329509727505,0.047986421783282183,-0.0490271311657318,-0.039906684943963815,,,,,,,,,,,,,,,,0.015093267678250314,,,,,,,0.26033208407114516
1745325416.3534422,0.018007217338523125,0.02926950912383278,0.36236534621664684,0.04881925582139718,-0.04613262982926094,-0.04206039439067968,0.011728399281478381,0.010432656405769358,0.44822182143919703,-0.02174056948600424,0.06447431646766054,0.023119356420243174,0.02640050261600589,-0.02451247427229375,0.0,34349.01453985681,0.008077001908963181,0.01817297900664314,0.35488256326179457,0.0,0.0,0.0,0.3014567461393483,TAKEOFF,0.018007217338523125,0.02926950912383278,0.36236534621664684,0.04899891001866785,-0.04475223701858897,-0.04187476950886601,,,,,,,,,,,,,,,,0.016665359278113235,,,,,,,0.2560014995954125
1745325416.3736749,0.018458148089467913,0.02937772333528986,0.36939708909303903,0.04815329624576839,-0.05061761950323168,-0.04188620073497427,0.030698787514725163,0.0013871925120347065,0.4259589977286862,-0.048735931922509024,0.09999174445986303,-0.0009416150893219377,0.01898246178060317,-0.038904884685424516,1.734723475976807e-18,35194.151340275304,0.008077001908963181,0.01817297900664314,0.3609116981845815,0.0,0.0,0.0,0.3014567461393483,TAKEOFF,0.018548985830884164,0.029406784824532763,0.3712173708164731,0.04412142975738056,-0.043957161948168705,-0.04408344738764153,,,,,,,,,,,,,,,,0.017473303933735092,,,,,,,0.2637297649760591
1745325416.3938706,0.018782094588458267,0.029543304317252772,0.37796094224714727,0.049824219858187156,-0.0471250719494437,-0.042644632142267075,0.024989078700698154,0.0032905786238282262,0.4114780225776403,0.010404612461402974,0.006271321742067073,0.013012438000544831,0.020516978872125672,-0.03476551485580903,0.0,35474.01327284836,0.008077001908963181,0.01817297900664314,0.36694083310736847,0.0,0.0,0.0,0.3014567461393483,TAKEOFF,0.01884358063685414,0.029669448739634643,0.37970368071741256,0.051163949241324946,-0.043163957659875275,-0.039359702451516064,,,,,,,,,,,,,,,,0.019113506020568428,,,,,,,0.26630686053966285
1745325416.414472,0.019087415682322625,0.029652770261199494,0.3862200449578396,0.052048104244918555,-0.043823286364991304,-0.04209621551828895,0.01259817879074382,0.003657011161268901,0.39586811237481156,0.03609300653457397,-0.0004698158576648061,0.015310071078455886,0.020731593575209522,-0.025635237951059375,1.734723475976807e-18,35833.86328769818,0.008077001908963181,0.01817297900664314,0.3729699680301555,0.0,0.0,0.0,0.3014567461393483,TAKEOFF,0.0190387742581083,0.029668786205471958,0.3876936447721148,0.05388974515262023,-0.049424645244517694,-0.04216271672600163,,,,,,,,,,,,,,,,0.02070215827633244,,,,,,,0.2696338751067817
1745325416.433457,0.019231260237460284,0.029814522442588462,0.39393013019448025,0.05486609785790088,-0.045027958000903576,-0.042364570295022407,0.006966031816138756,0.006628105933116988,0.37602566490832273,0.07093333827388298,0.06111471988244382,0.003926156276637003,0.022726683040096254,-0.021256163309348434,0.0,36453.13973369407,0.008077001908963181,0.01817297900664314,0.3789991029529424,0.0,0.0,0.0,0.3014567461393483,TAKEOFF,0.019294739059396306,0.029794644305371723,0.3953954837741581,0.05660557832523459,-0.04303074017134007,-0.0400912140485021,,,,,,,,,,,,,,,,0.021974498558952227,,,,,,,0.27539516774684275
1745325416.453458,0.019164129287819368,0.029847506396674373,0.40091204981518397,0.056909762499231145,-0.041820652772778424,-0.040953020590290656,-0.00044851782628737256,-0.0003778667182380265,0.32890536720325836,0.07378108305607164,0.09105778871986375,0.041482708187148595,0.016665629312829222,-0.014869086518639163,0.0,38299.72169809857,0.008077001908963181,0.01817297900664314,0.3850282378757294,0.0,0.0,0.0,0.3014567461393483,TAKEOFF,0.019222702122764977,0.029987710139525645,0.40236753157453126,0.05484279759541944,-0.048203803200423126,-0.040105231796530416,,,,,,,,,,,,,,,,0.022616685544604723,,,,,,,0.29285278193159775
1745325416.4738903,0.019166432484722253,0.030004055726425793,0.40634294457439113,0.05557491005721564,-0.047327558390804055,-0.04101045022443071,-0.01389565115878937,0.012975937404109798,0.3065728127404052,0.036962753008920476,0.09812022144568822,0.028183735860453397,0.025196255787320487,-0.005553119244635863,0.0,39298.116021365975,0.008077001908963181,0.01817297900664314,0.3910573727985164,0.0,0.0,0.0,0.3014567461393483,TAKEOFF,0.019250132140677344,0.030027370597334638,0.4077118427451799,0.05357820511172037,-0.041263279340527786,-0.04215350264378771,,,,,,,,,,,,,,,,0.02228449127441284,,,,,,,0.30247342261779675
1745325416.4934576,0.019079523420875277,0.03004675899899463,0.4124414115733818,0.055946524589488775,-0.03861595503378236,-0.04133703249730627,-0.004094763845214911,0.00231285989070445,0.28124239446855703,0.04434014507662568,0.1178953127141414,0.025111351967727326,0.01766681181599238,-0.011564746567214401,0.0,40328.4684485109,0.008077001908963181,0.01817297900664314,0.39708650772130333,0.0,0.0,0.0,0.3014567461393483,TAKEOFF,0.018981605687790174,0.030079802187555026,0.413659425638455,0.055684085643584603,-0.04927371930037517,-0.0420441775486918,,,,,,,,,,,,,,,,0.0223117727496815,,,,,,,0.31254305219265277
1745325416.5149457,0.01899025955519093,0.030168157515381468,0.4181996825269735,0.053060349256188515,-0.04638656565064255,-0.04015595290362099,-0.0029176735670430817,0.011159872752879017,0.26669002730573477,-0.007370550879137969,0.06144333828410598,0.024764883277652923,0.02306141953390741,-0.01200081999409841,0.0,40954.31650658118,0.008077001908963181,0.01817297900664314,0.4031156426440903,0.0,0.0,0.0,0.3014567461393483,TAKEOFF,0.018888794424034235,0.030145451745654365,0.42028268439694005,0.05448855441676124,-0.04613533832238446,-0.03877858492728091,,,,,,,,,,,,,,,,0.022147500064292978,,,,,,,0.31873205602846505
1745325416.533728,0.01881772041643816,0.030078702025542064,0.4234061479614211,0.052904082531616145,-0.03631462441413032,-0.04169370869070419,-0.009025103610815745,-0.0077093444838983154,0.24139838719750137,0.004817729613772049,0.03334131592396865,0.0018080863520706764,0.010782314665353412,-0.007722217701604972,8.673617379884035e-19,42048.96512330777,0.008077001908963181,0.01817297900664314,0.4091447775668773,0.0,0.0,0.0,0.3014567461393483,TAKEOFF,0.018644750164269617,0.03020570522572354,0.42438519982959855,0.05478211474149142,-0.03900474908212818,-0.03958546431890522,,,,,,,,,,,,,,,,0.021459169606252864,,,,,,,0.329694272520241
1745325416.5534484,0.01860386183562414,0.030153162574111807,0.4283659254962321,0.054887848422192125,-0.027248227182085017,-0.0411588459530463,-0.000527784026884446,-0.0038369264122774718,0.2310928608848683,0.0115424021656524,0.055726531377362144,-0.0013998672762694907,0.013039642852695146,-0.012437095850242663,0.0,42598.601256004025,0.008077001908963181,0.01817297900664314,0.41517391248966423,0.0,0.0,0.0,0.3014567461393483,TAKEOFF,0.01860386183562414,0.030153162574111807,0.4283659254962321,0.05401134378501194,-0.025995014043298154,-0.04219438607748244,,,,,,,,,,,,,,,,0.020697071903804223,,,,,,,0.3352666441378533
1745325416.5736704,0.018227656432258023,0.030195008309769397,0.43303417746394424,0.05731282919028473,-0.02586237387847697,-0.03922230003786406,-0.013703098299754496,0.005120860463423232,0.22054094283226527,0.04181076135115896,0.02720587028144284,0.010695502018714794,0.01814384077664004,-0.004094503541697048,1.734723475976807e-18,43175.055418433934,0.008077001908963181,0.01817297900664314,0.4212030474124512,0.0,0.0,0.0,0.3014567461393483,TAKEOFF,0.018227656432258023,0.030195008309769397,0.43303417746394424,0.057079210510886234,-0.024273138270841897,-0.04077187882652114,,,,,,,,,,,,,,,,0.019686051257473004,,,,,,,0.34116149442974486
1745325416.5936759,0.01786395669342588,0.030075406326950452,0.43668391240014937,0.0577198765248397,-0.027277512395706388,-0.039380621576074665,-0.02102013103109927,-0.010370612491005302,0.22138104262132424,0.041451042880656076,0.05658457761227438,0.03890350489788229,0.008897867441291226,0.0005835643475375907,-8.673617379884035e-19,43406.56425191978,0.008077001908963181,0.01817297900664314,0.42723218233523813,0.0,0.0,0.0,0.3014567461393483,TAKEOFF,0.0176813564986956,0.03016737563630533,0.4374811526571876,0.05482338588653424,-0.03511435859125036,-0.039616057191214915,,,,,,,,,,,,,,,,0.018077263655992357,,,,,,,0.34354380095474163
1745325416.6145303,0.017410775684632136,0.030088692091460395,0.44121659371351823,0.052237575773874924,-0.027309511339129178,-0.0395575531502689,-0.023142471341000025,-0.0049402838191749425,0.2150784834491295,-0.042103330630567266,0.07950755216645919,-0.01078479386744284,0.01195179141117465,0.0022876239025833023,0.0,43841.72529368013,0.008077001908963181,0.01817297900664314,0.43326131725802514,0.0,0.0,0.0,0.3014567461393483,TAKEOFF,0.017367731654644603,0.030168482361650893,0.4420499213779374,0.05138833229921327,-0.0310951980116916,-0.04041860498225732,,,,,,,,,,,,,,,,0.017099414454839486,,,,,,,0.3480452982769041
1745325416.6334999,0.017008204299514777,0.030112369742178013,0.4457142912774866,0.05138475385737594,-0.02335016375611625,-0.038339391612734496,-0.019564789864375615,0.001750702216935165,0.22094004160063702,-0.023411048074059856,0.07727422278900016,0.0528046482650376,0.015872673884136945,0.0006716127546677608,0.0,43812.575163703696,0.008077001908963181,0.01817297900664314,0.4392904521808121,0.0,0.0,0.0,0.3014567461393483,TAKEOFF,0.01680830425152204,0.030085439231174155,0.44663510626985314,0.052821350759923,-0.030628488095432935,-0.03732589093959763,,,,,,,,,,,,,,,,0.016235182044459315,,,,,,,0.34774278653119794
1745325416.653427,0.016615144371056968,0.02998895943413273,0.45042836983456697,0.050604559758420424,-0.021161584821994144,-0.037998776606298974,-0.01205448330608031,-0.009175662230795821,0.23114662162640928,-0.02456547111349569,0.052408952388374355,0.03386066427891541,0.009553835270024598,-0.0032396337001967535,0.0,43571.91717252271,0.008077001908963181,0.01817297900664314,0.44531958710359903,0.0,0.0,0.0,0.3014567461393483,TAKEOFF,0.016615144371056968,0.02998895943413273,0.45042836983456697,0.051008938158160946,-0.01875192768580152,-0.03773123519291129,,,,,,,,,,,,,,,,0.015447230533596052,,,,,,,0.34525064187745025
1745325416.6736057,0.0161941701808344,0.029937235400189714,0.4553999209652203,0.04965669459966612,-0.016375880859263055,-0.03979575495640256,-0.01858926383407696,-0.007953458352295424,0.24403716500717115,-0.035512956368662495,0.01780205947571526,-0.01227434312925921,0.010350225394216083,0.0010171456146705893,0.0,43202.33292714675,0.008077001908963181,0.01817297900664314,0.45134872202638604,0.0,0.0,0.0,0.3014567461393483,TAKEOFF,0.0161941701808344,0.029937235400189714,0.4553999209652203,0.04925086507999831,-0.01396945444703369,-0.04088137173272642,,,,,,,,,,,,,,,,0.014855920102403154,,,,,,,0.3414417420050151
1745325416.6937048,0.015813292936887848,0.029857727384888767,0.4595350122307886,0.05101581162574652,-0.015824868857605614,-0.040623352921607785,-0.022445905492192254,-0.006634350441349085,0.25461479679790594,-0.03158250818856746,0.029613660462694768,-0.008378760332635186,0.011123987526335508,0.0037174670063935267,8.673617379884035e-19,43018.88444694136,0.008077001908963181,0.01817297900664314,0.457377856949173,0.0,0.0,0.0,0.3014567461393483,TAKEOFF,0.0156535359807253,0.02988078189189278,0.46054947758085835,0.053752703802555146,-0.016265885478207315,-0.03500624606361199,,,,,,,,,,,,,,,,0.01417874685720369,,,,,,,0.33955929015296993
1745325416.7156272,0.015370992594205714,0.029818958944152648,0.46498882369365446,0.05031944083927672,-0.008835129382056764,-0.03857386718651369,-0.02096675060364729,-0.005462980289248703,0.26885859404489465,-0.014986707625496382,0.04856640956050576,0.01978141196316157,0.011977307082732128,0.003395892921410182,-8.673617379884035e-19,42537.752423759666,0.008077001908963181,0.01817297900664314,0.46340699187195994,0.0,0.0,0.0,0.3014567461393483,TAKEOFF,0.015321083688759653,0.029760139787868786,0.4660365846490642,0.04809004137274676,-0.014849492216718612,-0.03952578994763352,,,,,,,,,,,,,,,,0.013832329548322808,,,,,,,0.3346474455825728
1745325416.733528,0.015005690408686745,0.02980688772900884,0.4706254715586292,0.04835836286520585,-0.010865826054001318,-0.039334336696907446,-0.013474634466257324,-0.001714500293056683,0.27647317553583106,-0.036804659909094845,0.04215135350006449,-0.009612944026039693,0.014345319350584518,-0.0006675392446453543,8.673617379884035e-19,42293.03068587673,0.008077001908963181,0.01817297900664314,0.4694361267947469,0.0,0.0,0.0,0.3014567461393483,TAKEOFF,0.014857768271316194,0.029800015754567442,0.47185382183155633,0.048739982120671106,-0.01923273776842337,-0.037954563307385836,,,,,,,,,,,,,,,,0.01359297971211289,,,,,,,0.3321629462516556
1745325416.753418,0.014543325077485496,0.029694246740891984,0.47678203120745954,0.04894214224097034,-0.01527267761777487,-0.040616598803759604,-0.01710164184679469,-0.0065188499738369895,0.29859259416911277,-0.02305559511414506,0.008307141877934653,-0.03438940322994615,0.0116699810363394,0.002109169006512035,0.0,41390.324126870415,0.008077001908963181,0.01817297900664314,0.4754652617175339,0.0,0.0,0.0,0.3014567461393483,TAKEOFF,0.014543325077485496,0.029694246740891984,0.47678203120745954,0.04874009070285163,-0.015094861465219598,-0.04174110260820625,,,,,,,,,,,,,,,,0.01327730497554421,,,,,,,0.3230771429171911
1745325416.7737863,0.014156505082987,0.029694255993514284,0.4832985650994178,0.05178165995610895,-0.013727511334158197,-0.03840224922548619,-0.020597170205165223,0.006060162899904352,0.3164695120629967,0.047270629934274735,0.017212542105314525,0.03692302636670915,0.019963684036352652,0.004846616766989608,1.734723475976807e-18,40619.6589818285,0.008077001908963181,0.01817297900664314,0.48149439664032084,0.0,0.0,0.0,0.3014567461393483,TAKEOFF,0.014156505082987,0.029694255993514284,0.4832985650994178,0.053550172723152725,-0.01355977695012043,-0.03697716286476329,,,,,,,,,,,,,,,,0.013151243518389153,,,,,,,0.31541567741652404
1745325416.793971,0.013870037215967083,0.029590514585882827,0.4886154875303314,0.05082122401667567,-0.011407288419886991,-0.03798426120078542,-0.018229139227898206,-0.0014984219975635238,0.32318235917229243,-0.00750568812296119,0.03693444224196434,0.046005389352045456,0.015165738462861036,0.0037122638786286632,1.734723475976807e-18,40432.942863809316,0.008077001908963181,0.01817297900664314,0.4875235315631078,0.0,0.0,0.0,0.3014567461393483,TAKEOFF,0.013843676605301463,0.029592097497360925,0.4899992066316823,0.04800918631467928,-0.009304999506644386,-0.038624576377510524,,,,,,,,,,,,,,,,0.012849581495354359,,,,,,,0.3135723216078957
1745325416.8158898,0.013586558097188998,0.029623691170444572,0.49554933198210377,0.050165803051083514,-0.008914145987865902,-0.037294405725271026,-0.01804221286440811,0.006574390109278102,0.3371820010663421,-0.0033666265016099504,0.03608324281600343,0.053082317061969475,0.02083543491954617,0.004022825020010279,1.734723475976807e-18,39757.79649559658,0.008077001908963181,0.01817297900664314,0.4935526664858948,0.0,0.0,0.0,0.3014567461393483,TAKEOFF,0.013593837405324032,0.02957121990370074,0.4969990080966184,0.05333944992652887,-0.007116964791428854,-0.0377548803651163,,,,,,,,,,,,,,,,0.012863152473371327,,,,,,,0.30694781661251475
1745325416.833493,0.013368375890737376,0.02951112248472827,0.5027341724498944,0.05134742022536119,-0.010301638143562164,-0.03892128203458286,-0.012675115181639378,-0.002628452778145795,0.3513125580147245,0.002513205383799094,0.028092211524562885,-0.02302118048230768,0.015081827084193606,0.0008134315107914958,-8.673617379884035e-19,39017.60745608964,0.008077001908963181,0.01817297900664314,0.49958180140868175,0.0,0.0,0.0,0.3014567461393483,TAKEOFF,0.013356102304381941,0.029450578544342704,0.5041700696462741,0.05089417384913907,-0.009159489967947217,-0.03948728903316263,,,,,,,,,,,,,,,,0.012903084101334738,,,,,,,0.29975706981343897
1745325416.8534415,0.013172284811221345,0.02941248063902028,0.5101394991273813,0.051485341648666284,-0.00972119894263164,-0.03952090006577595,-0.0072838918867746795,-0.0053909189871113395,0.3632069459093279,0.01428264402725467,0.0060158877531562545,0.002030445634927094,0.013436495995560672,-0.0025926107799587594,-8.673617379884035e-19,38342.888438852504,0.008077001908963181,0.01817297900664314,0.5056109363314687,0.0,0.0,0.0,0.3014567461393483,TAKEOFF,0.013172284811221345,0.02941248063902028,0.5101394991273813,0.05167968940991082,-0.00908941578074362,-0.039092717848002556,,,,,,,,,,,,,,,,0.01314519630111231,,,,,,,0.2932660349541465
1745325416.8740456,0.012979750782955607,0.029432568616576355,0.5160345818858858,0.05323572183787565,-0.00850037194956601,-0.03752077241401466,-0.012277964848874588,0.004122780668597795,0.35374206517691464,0.03813427300474694,-0.011880954108056748,0.0303174666594838,0.019718947949478358,0.0010422423908591494,0.0,38761.10531466768,0.008077001908963181,0.01817297900664314,0.5116400712542557,0.0,0.0,0.0,0.3014567461393483,TAKEOFF,0.013021807180637513,0.02936072399528303,0.517536826225368,0.04899166015940179,-0.005320219501051316,-0.03859204634964715,,,,,,,,,,,,,,,,0.013043275217408393,,,,,,,0.29728237031691024
1745325416.8936136,0.01280706777275828,0.029401767286227357,0.5234207589055442,0.052965944712653916,-0.010376478780182427,-0.038172582066040274,-0.014697244121892978,0.0028216803167551074,0.3506556378563594,0.03356772057649864,0.004559612639954518,-0.004881880043737037,0.018870297284281703,0.0028897236159766138,0.0,38710.11262886518,0.008077001908963181,0.01817297900664314,0.5176692061770427,0.0,0.0,0.0,0.3014567461393483,TAKEOFF,0.012936888451063281,0.029366819777958634,0.5249294480009344,0.049967786117762134,-0.010583978929731447,-0.03869995442611895,,,,,,,,,,,,,,,,0.013473662014920082,,,,,,,0.2967914363798352
1745325416.914738,0.012667763934927759,0.029330558171924207,0.5307975992750011,0.05333162058045574,-0.015352676826539177,-0.03865427846290991,-0.01987432078510119,-0.0027738520465195766,0.35053689515908604,0.01837291950174673,0.024409771885958966,-0.013993906270524284,0.0151280144461469,0.006585006323735154,-8.673617379884035e-19,38528.20335825662,0.008077001908963181,0.01817297900664314,0.5236983410998296,0.0,0.0,0.0,0.3014567461393483,TAKEOFF,0.012758167768915227,0.029334637109969013,0.5323301107363614,0.0526674374838758,-0.014042353852608682,-0.03892628630764222,,,,,,,,,,,,,,,,0.013998790499407172,,,,,,,0.2950428812369206
1745325416.9334254,0.012641173102174013,0.029303043379341236,0.5382103698971267,0.05367447753859348,-0.015816334983267014,-0.03855400334946284,-0.007820588209679591,-0.0004982113817442049,0.3582547930391819,0.027060778151556778,0.04905301644587163,-0.00280919866892309,0.016946157292852405,-0.0015830562636620638,-1.734723475976807e-18,38030.967285243605,0.008077001908963181,0.01817297900664314,0.5297274760226166,0.0,0.0,0.0,0.3014567461393483,TAKEOFF,0.012736387939150641,0.029299535433260828,0.5396943864139334,0.055262265530835956,-0.014937072392753653,-0.03820380345922524,,,,,,,,,,,,,,,,0.014719697011404123,,,,,,,0.29028529339199577
1745325416.9534345,0.012733261785502863,0.029222892455392568,0.5454225562209252,0.05223918942179104,-0.013213947065573156,-0.03810186223768876,0.005695983615755439,-0.005436926015719539,0.3481570866696677,-0.006803443797983939,0.011437379561748378,0.02134863825092477,0.01335687021677574,-0.010935347436102692,0.0,38299.11625181498,0.008077001908963181,0.01817297900664314,0.5357566109454036,0.0,0.0,0.0,0.3014567461393483,TAKEOFF,0.012733261785502863,0.029222892455392568,0.5454225562209252,0.05174540984019095,-0.01186054265797963,-0.03724638513102747,,,,,,,,,,,,,,,,0.01540168306816188,,,,,,,0.29284698746045007
1745325416.9737117,0.012777990399011563,0.029253619658667827,0.5510760256840153,0.052589722948804776,-0.013081729929421734,-0.04016674122824278,0.007675946464576221,0.0013456568061619271,0.3369063547007318,0.0028370221168371058,-0.038424452982265024,-0.03135901680686786,0.017764204535859935,-0.012156907103128667,-1.734723475976807e-18,38822.58737910555,0.008077001908963181,0.01817297900664314,0.5417857458681905,0.0,0.0,0.0,0.3014567461393483,TAKEOFF,0.012807923755444801,0.029220210612238024,0.5524441284014436,0.05078913151626897,-0.012112110086127436,-0.040827460351374134,,,,,,,,,,,,,,,,0.015204906744179337,,,,,,,0.2978747471991066
1745325416.993829,0.012757784766155229,0.029237964505380718,0.5578473902997056,0.051507927623258065,-0.014740093274357973,-0.03931657609678963,-0.005250847341184058,0.0017280815406056321,0.3215117378888791,-0.005259907005783076,-0.05139360496407853,-0.02599553679644863,0.01772644783109478,-0.0034114628943993086,0.0,39358.31010142469,0.008077001908963181,0.01817297900664314,0.5478148807909775,0.0,0.0,0.0,0.3014567461393483,TAKEOFF,0.012832904603173045,0.029196192158755473,0.5592816358524236,0.05339461617860711,-0.008186413561681007,-0.03769162163725129,,,,,,,,,,,,,,,,0.015652312266440902,,,,,,,0.3030577008670129
1745325417.0144653,0.012833204185491508,0.029205949397146665,0.5645121031028232,0.052835981693478064,-0.01267638127072541,-0.03415818509339398,-0.006976373139999216,-0.0014415078412373407,0.3145458935152996,0.004928933409689514,0.0046608160311382195,0.0445298235558032,0.015528985633957755,-0.0023731942677618356,0.0,39557.1650579755,0.008077001908963181,0.01817297900664314,0.5538440157137645,0.0,0.0,0.0,0.3014567461393483,TAKEOFF,0.012980666318508274,0.029197177805495498,0.5659176093386036,0.052642370987542826,-0.013096627022988003,-0.03747339778458198,,,,,,,,,,,,,,,,0.01606723324886937,,,,,,,0.30499138981489965
1745325417.033416,0.012971011338780073,0.029174479649057616,0.5710293057952833,0.053753956097070336,-0.017430742721162646,-0.035345874560110395,-0.0009703799181598402,-0.0007250893076380727,0.30670565690433227,0.02510899921218172,0.03795292119993313,0.01835392187039383,0.015862480633749513,-0.006452058919914183,0.0,39814.76271846433,0.008077001908963181,0.01817297900664314,0.5598731506365514,0.0,0.0,0.0,0.3014567461393483,TAKEOFF,0.013022613701634418,0.029151658298915143,0.5722424447858973,0.05251089193352715,-0.01804577821281451,-0.0368257222543774,,,,,,,,,,,,,,,,0.016414753808994015,,,,,,,0.3075043206797693
1745325417.0534346,0.013153557427628196,0.029079458577391016,0.5772845629359836,0.05439184777038678,-0.016455569111243545,-0.03681017950286571,0.011206516657053777,-0.008587072613386667,0.3012225440817776,0.025353364575314653,0.02407536018639279,-0.0010591359256581295,0.010599713192395869,-0.014530065273742565,8.673617379884035e-19,40004.052554099006,0.008077001908963181,0.01817297900664314,0.5659022855593384,0.0,0.0,0.0,0.3014567461393483,TAKEOFF,0.013153557427628196,0.029079458577391016,0.5772845629359836,0.054516160078337546,-0.015273279115050064,-0.037033507199345214,,,,,,,,,,,,,,,,0.016561369232044747,,,,,,,0.309356714397047
1745325417.073704,0.013350503325769137,0.029077258321230905,0.5834326907740742,0.05151489798741023,-0.02037226110258413,-0.03707976470043204,0.016267560148785148,-0.0017620197371431665,0.29704266796040113,-0.008010252281210955,-0.022869099277629406,0.011428605840932183,0.014967270737711804,-0.017981058892636792,0.0,40170.76699331335,0.008077001908963181,0.01817297900664314,0.5719314204821254,0.0,0.0,0.0,0.3014567461393483,TAKEOFF,0.013350503325769137,0.029077258321230905,0.5834326907740742,0.052075095435929114,-0.01836639587640896,-0.03622840484894936,,,,,,,,,,,,,,,,0.016703063877386844,,,,,,,0.3109923060603176
1745325417.0933833,0.013413955961521349,0.029081704185361688,0.5880899482667714,0.05181970318841769,-0.019649184116077693,-0.03619384332525635,0.004618613617706967,0.0025867457439405304,0.27626755337892134,-0.0034323531095116857,-0.042989864225668285,0.020104747259823523,0.017247840215060112,-0.010262776045090405,0.0,41180.67140066069,0.008077001908963181,0.01817297900664314,0.5779605554049123,0.0,0.0,0.0,0.3014567461393483,TAKEOFF,0.013467018929753587,0.029098062857570845,0.5893818164551362,0.051393249749169805,-0.01676410106126735,-0.03577509074957468,,,,,,,,,,,,,,,,0.0158141697010563,,,,,,,0.3209843556731411
1745325417.1148305,0.013607234477743533,0.029123189596161364,0.5939040265950731,0.05143203334749339,-0.01824070724683728,-0.03567008649921723,0.005167499443613469,0.004779774477853721,0.2712792630117753,-0.006379415705214621,-0.0035899018687269597,0.02550492096763202,0.018568674672333026,-0.010786477439399533,1.734723475976807e-18,41409.72578646671,0.008077001908963181,0.01817297900664314,0.5839896903276993,0.0,0.0,0.0,0.3014567461393483,TAKEOFF,0.013683639989343997,0.02909553783098414,0.5951257736016577,0.05095139415964828,-0.018955566824978877,-0.03718366403768466,,,,,,,,,,,,,,,,0.01577290866778096,,,,,,,0.32327114030235354
1745325417.133431,0.013850395487302665,0.029041915699664456,0.5996621661984352,0.05106230026383388,-0.019820562467446512,-0.03608303225789102,0.014040318262286414,-0.006443021616231847,0.2759244292250457,-0.041910694507381975,0.020846000786291438,-0.010904605923578028,0.011617318078331452,-0.016671135644241497,0.0,41249.47224129074,0.008077001908963181,0.01817297900664314,0.5900188252504863,0.0,0.0,0.0,0.3014567461393483,TAKEOFF,0.013835173017152159,0.02907587480634098,0.6007642740560714,0.04922560610142405,-0.024505409823011786,-0.03779209582490434,,,,,,,,,,,,,,,,0.015635212914626502,,,,,,,0.3216704255762987
1745325417.1534133,0.013997370500204914,0.029090341637177452,0.6053040001810633,0.05075781634742464,-0.022133096681527888,-0.035926855049591054,0.00659771893285106,-5.8540353799626035e-05,0.2795663141381869,-0.010385224792937305,0.0008342430590109564,1.2814788134737475e-05,0.015726007032658737,-0.01228531046168313,1.734723475976807e-18,41154.29189189118,0.008077001908963181,0.01817297900664314,0.5960479601732732,0.0,0.0,0.0,0.3014567461393483,TAKEOFF,0.013997370500204914,0.029090341637177452,0.6053040001810633,0.05106493653034111,-0.02223023524088511,-0.03628621114588621,,,,,,,,,,,,,,,,0.01548915258135706,,,,,,,0.3207214874617744
1745325417.173473,0.014151356819914968,0.02909887494615274,0.6096721125651685,0.051613616092440195,-0.02547284078271828,-0.036278429346959226,0.005119411527184689,0.0021782670736020977,0.25451261964839467,0.0008838019628921044,0.013773903452323637,-0.0011966229524904481,0.016541380122857358,-0.011154533560909785,0.0,42354.51161811147,0.008077001908963181,0.01817297900664314,0.6020770950960602,0.0,0.0,0.0,0.3014567461393483,TAKEOFF,0.014191407545967255,0.029133966271697648,0.6109169258517114,0.052147550270239464,-0.020320466437193808,-0.03411232556962808,,,,,,,,,,,,,,,,0.014627278626636485,,,,,,,0.33278625243007703
1745325417.1938403,0.014259035569428124,0.029163710974718614,0.6153085484280757,0.05237242974024228,-0.026721683979437732,-0.034581074218722266,-0.005481182989554344,0.007129985143328604,0.2664477357202744,0.013038602675533653,0.028663675501172093,0.02902983753140289,0.019881779829587047,-0.005000324709995229,1.734723475976807e-18,41928.75916217166,0.008077001908963181,0.01817297900664314,0.6081062300188472,0.0,0.0,0.0,0.3014567461393483,TAKEOFF,0.014454806659699811,0.02904569823163066,0.616536454780214,0.05108198371164069,-0.022161783868141084,-0.03500178666139729,,,,,,,,,,,,,,,,0.014521953031225141,,,,,,,0.32848174632747895
1745325417.2153387,0.014554099082834455,0.02911094156662349,0.6209932566060495,0.051406343155336216,-0.028212228658767678,-0.035422855047993716,0.004116154818765997,0.0006406212468338449,0.272924633124657,0.018793290296374315,0.06026240592159354,-0.0018065228047236207,0.01600875273192074,-0.011292872310902036,1.734723475976807e-18,41713.16268899579,0.008077001908963181,0.01817297900664314,0.6141353649416341,0.0,0.0,0.0,0.3014567461393483,TAKEOFF,0.014640750597593346,0.029182946395950402,0.6221633240450982,0.050029356891119925,-0.020550436991717404,-0.03601044382306632,,,,,,,,,,,,,,,,0.01444376996646518,,,,,,,0.3263124716928059
